addressLatitude,addressLongitude,creditUnionName,creditUnionSiteName,city,cityPhysical,country,isMainOffice,isMdi,bilingual_Services,credit_Builder,financial_Counseling,first_Time_Homebuyer_Program,inSchoolBranch,low_cost_wire_transfers,no_Cost_Tax_Preparation,no_Cost_Share_Drafts,palS_I,palS_II,siteFunctions,siteName,state,url,zipcode,street
40.603802,-80.279678,CLEARVIEW,Hopewell,Aliquippa,,United States,FALSE,FALSE,TRUE,FALSE,TRUE,FALSE,FALSE,TRUE,TRUE,TRUE,TRUE,FALSE,Member Services;ATM;;Shared Service Center,,PA,http://www.clearviewfcu.org,15001,2646 Brodhead Rd Suite 1
40.604813,-80.276208,WEST-AIRCOMM,West-Aircomm FCU,Aliquippa,,United States,FALSE,FALSE,FALSE,FALSE,FALSE,FALSE,FALSE,TRUE,FALSE,TRUE,TRUE,FALSE,Member Services;ATM;Drive Thru;Shared Service Center,,PA,http://www.westaircomm.com,15001,2015 Main St
40.60553,-80.275259,FRIENDLY,Friendly Federal Credit Union,Aliquippa,,United States,TRUE,FALSE,FALSE,FALSE,FALSE,FALSE,FALSE,TRUE,FALSE,TRUE,FALSE,FALSE,Member Services;;Drive Thru;,,PA,http://www.friendlyfcu.org,15001-2760,2000 Main St
40.608693,-80.277788,ALIQUIPPA TEACHERS,800 21st St,Aliquippa,,United States,TRUE,FALSE,FALSE,FALSE,FALSE,FALSE,FALSE,FALSE,FALSE,FALSE,FALSE,FALSE,Member Services;;;,,PA,"",15001,800 21st St
40.557345,-80.260457,B I,Bocktown,Aliquippa,,United States,FALSE,FALSE,FALSE,FALSE,FALSE,FALSE,FALSE,FALSE,FALSE,FALSE,FALSE,FALSE,Member Services;;;,,PA,http://www.bifcu.org,15001,5040 Bocktown Rd
40.572056,-80.255229,A & S,A & S Federal Credit Union,Aliquippa,,United States,TRUE,FALSE,FALSE,FALSE,TRUE,FALSE,FALSE,TRUE,FALSE,TRUE,FALSE,FALSE,Member Services;ATM;Drive Thru;,,PA,http://www.asfederal.org,15001,2090 Brodhead Rd
40.643321,-80.373962,USX,Monaca Office,Monaca,,United States,FALSE,FALSE,FALSE,FALSE,TRUE,FALSE,FALSE,TRUE,FALSE,TRUE,FALSE,FALSE,Member Services;ATM;;,,PA,http://www.usxfcu.org,15061,400 Frankfort Rd
40.658974,-80.317218,FREEDOM UNITED,FREEDOM UNITED FCU,Monaca,,United States,FALSE,FALSE,FALSE,FALSE,TRUE,FALSE,FALSE,TRUE,FALSE,TRUE,FALSE,FALSE,Member Services;;;,,PA,https://www.FREEDOMUNITEDFCU.COM,15061-3138,3589 Brodhead Rd
40.497404,-80.290616,POST GAZETTE,POST-GAZETTE FCU - CLINTON OFFICE,CLINTON,,United States,TRUE,FALSE,FALSE,TRUE,TRUE,FALSE,FALSE,FALSE,FALSE,FALSE,FALSE,FALSE,Member Services;;;,,PA,http://WWW.POSTGAZETTEFCU.ORG,15026,2201 SWEENEY DR
40.589429,-80.229662,NEW ALLIANCE,Ambridge,Ambridge,,United States,TRUE,FALSE,FALSE,FALSE,FALSE,FALSE,FALSE,TRUE,FALSE,TRUE,TRUE,FALSE,Member Services;ATM;Drive Thru;,,PA,https://www.newalliancefcu.com,15003,835 Merchant St
40.591198,-80.226299,AMBRIDGE AREA,Student branch,Ambridge,,United States,FALSE,FALSE,FALSE,TRUE,TRUE,FALSE,TRUE,TRUE,FALSE,TRUE,FALSE,FALSE,Member Services;;;,,PA,http://www.ambridgeareafcu.com,15003,909 Duss Ave
40.674262,-80.310027,NEW ALLIANCE,Center Township,Monaca,,United States,FALSE,FALSE,FALSE,FALSE,FALSE,FALSE,FALSE,TRUE,FALSE,TRUE,TRUE,FALSE,Member Services;ATM;Drive Thru;,,PA,https://www.newalliancefcu.com,15061-2432,101 Golfview Dr
40.675301,-80.311791,CLEARVIEW,Center,Monaca,,United States,FALSE,FALSE,TRUE,FALSE,TRUE,FALSE,FALSE,TRUE,TRUE,TRUE,TRUE,FALSE,Member Services;ATM;Drive Thru;Shared Service Center,,PA,http://www.clearviewfcu.org,15061,210 Golfview Dr Stone Quarry Commons
40.636233,-80.229466,AMBRIDGE AREA,Ambridge Area FCU,Baden,,United States,TRUE,FALSE,FALSE,TRUE,TRUE,FALSE,TRUE,TRUE,FALSE,TRUE,FALSE,FALSE,Member Services;;;,,PA,http://www.ambridgeareafcu.com,15005-1736,401 State St
40.63455,-80.227243,FRIENDLY,Freindly FCU Baden Office,Baden,,United States,FALSE,FALSE,FALSE,FALSE,FALSE,FALSE,FALSE,TRUE,FALSE,TRUE,FALSE,FALSE,Member Services;;;,,PA,http://www.friendlyfcu.org,15005-1904,384 State St
40.50472,-80.222084,CLEARVIEW,Moon Township,Moon Township,,United States,TRUE,FALSE,TRUE,FALSE,TRUE,FALSE,FALSE,TRUE,TRUE,TRUE,TRUE,FALSE,Member Services;ATM;Drive Thru;Shared Service Center,,PA,http://www.clearviewfcu.org,15108-4212,8805 University Blvd
40.688983,-80.318722,LIBERTY,Beaver PA,Beaver,,United States,FALSE,FALSE,FALSE,FALSE,TRUE,TRUE,FALSE,TRUE,FALSE,TRUE,FALSE,FALSE,Member Services;;;,,PA,https://www.Libertyfcu.org,15009,1601 3rd St
40.69249,-80.310517,WEST PENN P&P,WEST PENN P&P FCU,BEAVER,,United States,TRUE,FALSE,FALSE,FALSE,FALSE,FALSE,FALSE,FALSE,FALSE,FALSE,FALSE,FALSE,Member Services;;;,,PA,http://WWW.WESTPPFCU.COM,15009-2034,1089 3rd St
40.695014,-80.315241,WEST-AIRCOMM,West-Aircomm Federal Credit Union,Beaver,,United States,TRUE,FALSE,FALSE,FALSE,FALSE,FALSE,FALSE,TRUE,FALSE,TRUE,TRUE,FALSE,Member Services;ATM;Drive Thru;Shared Service Center,,PA,http://www.westaircomm.com,15009-2058,485 Buffalo St
40.507313,-80.208767,WEST-AIRCOMM,West Air-Comm Federal Credit Union,Moon Twp,,United States,FALSE,FALSE,FALSE,FALSE,FALSE,FALSE,FALSE,TRUE,FALSE,TRUE,TRUE,FALSE,Member Services;ATM;Drive Thru;Shared Service Center,,PA,http://www.westaircomm.com,15108-2745,989 Beaver Grade Rd
40.70112,-80.292971,BEAVER VALLEY,Bridgewater,West Bridgewater,,United States,FALSE,FALSE,FALSE,FALSE,FALSE,FALSE,FALSE,TRUE,FALSE,TRUE,FALSE,FALSE,Member Services;ATM;Drive Thru;,,PA,http://www.beavervalleyfcu.org,15009,71 Bridge St
40.702315,-80.282941,FREEDOM UNITED,FREEDOM UNITED FCU,ROCHESTER,,United States,TRUE,FALSE,FALSE,FALSE,TRUE,FALSE,FALSE,TRUE,FALSE,TRUE,FALSE,FALSE,Member Services;ATM;Drive Thru;,,PA,https://www.FREEDOMUNITEDFCU.COM,15074-2143,283 Adams St
40.735605,-80.315371,R-S BELLCO,Main Office,New Brighton,,United States,TRUE,FALSE,FALSE,FALSE,TRUE,FALSE,FALSE,TRUE,FALSE,TRUE,FALSE,FALSE,Member Services;;;,,PA,http://www.rsbellcofcu.com,15066-1830,710 3rd Ave
40.463141,-80.178309,FEDEX EMPLOYEES CREDIT ASSOCIATION,Pittsburgh,Moon Township,,United States,FALSE,FALSE,FALSE,FALSE,TRUE,TRUE,FALSE,TRUE,FALSE,TRUE,TRUE,TRUE,Member Services;ATM;;,,PA,http://www.fecca.com,15108-9373,1000 Fedex Dr
40.611494,-80.564853,FIRST CHOICE AMERICA COMMUNITY,Chester Office,Chester,,United States,FALSE,FALSE,FALSE,FALSE,TRUE,FALSE,FALSE,TRUE,FALSE,FALSE,FALSE,FALSE,Member Services;ATM;Drive Thru;,,WV,http://www.firstchoiceamericacu.org,26034,300 Carolina Ave
40.454559,-80.167702,CLEARVIEW,Robinson,Pittsburgh,,United States,FALSE,FALSE,TRUE,FALSE,TRUE,FALSE,FALSE,TRUE,TRUE,TRUE,TRUE,FALSE,Member Services;ATM;;Shared Service Center,,PA,http://www.clearviewfcu.org,15205,1920 Park Manor Blvd Robinson Town Center
40.614586,-80.099636,CHROME,Wexford Branch,Sewickley,,United States,FALSE,FALSE,FALSE,FALSE,TRUE,FALSE,TRUE,TRUE,FALSE,TRUE,FALSE,FALSE,Member Services;ATM;;,,PA,https://www.chromefcu.org,15143-4029,2601 Wexford Bayne Rd
40.441286,-80.164873,BAYER HERITAGE,Pittsburgh,Pittsburgh,,United States,FALSE,FALSE,TRUE,FALSE,TRUE,FALSE,FALSE,TRUE,FALSE,TRUE,FALSE,FALSE,Member Services;;;Shared Service Center,,PA,http://bayerhfcu.com,15205-9707,102 Bayer Rd
40.769311,-80.36268,BLACKHAWK,Blackhawk Federal Credit Union,Beaver Falls,,United States,TRUE,FALSE,FALSE,TRUE,TRUE,FALSE,FALSE,TRUE,FALSE,TRUE,FALSE,FALSE,Member Services;;;,,PA,http://www.bfcu.net,15010,2358 Darlington RD
40.609617,-80.088777,ALLEGENT COMMUNITY,Allegent Community FCU,Wexford,,United States,FALSE,FALSE,FALSE,FALSE,FALSE,FALSE,FALSE,TRUE,FALSE,TRUE,FALSE,FALSE,Member Services;ATM;Drive Thru;,,PA,http://www.allegentfcu.org,15090,2000 Corporate Dr Ste 200
40.682395,-80.125724,ALLEGENT COMMUNITY,Allegent Community FCU,Cranberry Township,,United States,FALSE,FALSE,FALSE,FALSE,FALSE,FALSE,FALSE,TRUE,FALSE,TRUE,FALSE,FALSE,Member Services;ATM;Drive Thru;,,PA,http://www.allegentfcu.org,16066,1646 Haine School Rd
40.681612,-80.118516,COMMONROOTS,Main Brach,Cranberry Township,,United States,TRUE,FALSE,FALSE,FALSE,FALSE,FALSE,FALSE,TRUE,FALSE,TRUE,FALSE,FALSE,Member Services;;;,,PA,https://commonrootsfcu.com,16066,1204 Freedom Rd
40.775848,-80.378601,CLEARVIEW,Chippewa,Beaver Falls,,United States,FALSE,FALSE,TRUE,FALSE,TRUE,FALSE,FALSE,TRUE,TRUE,TRUE,TRUE,FALSE,Member Services;ATM;Drive Thru;Shared Service Center,,PA,http://www.clearviewfcu.org,15010-7113,2640 Constitution Blvd
40.777844,-80.327941,BEAVER VALLEY,Beaver Falls,Beaver Falls,,United States,TRUE,FALSE,FALSE,FALSE,FALSE,FALSE,FALSE,TRUE,FALSE,TRUE,FALSE,FALSE,Member Services;ATM;;,,PA,http://www.beavervalleyfcu.org,15010,601 37th St
40.689588,-80.109142,USX,Cranberry,Cranberry Twp,,United States,TRUE,FALSE,FALSE,FALSE,TRUE,FALSE,FALSE,TRUE,FALSE,TRUE,FALSE,FALSE,Member Services;ATM;Drive Thru;,,PA,http://www.usxfcu.org,16066-0728,PO Box 1728
40.470407,-80.09219,CLEARVIEW,Kennedy,Mc Kees Rocks,,United States,FALSE,FALSE,TRUE,FALSE,TRUE,FALSE,FALSE,TRUE,TRUE,TRUE,TRUE,FALSE,Member Services;ATM;Drive Thru;Shared Service Center,,PA,http://www.clearviewfcu.org,15136-1791,101 Langer Way
40.354544,-80.350912,B I,B.I.FCU,Burgettstown,,United States,TRUE,FALSE,FALSE,FALSE,FALSE,FALSE,FALSE,FALSE,FALSE,FALSE,FALSE,FALSE,Member Services;;;,,PA,http://www.bifcu.org,15021,554 Joffre Cherry Valley Rd
40.6866,-80.0897,CLEARVIEW,Cranberry Twp,Cranberry Twp,,United States,FALSE,FALSE,TRUE,FALSE,TRUE,FALSE,FALSE,TRUE,TRUE,TRUE,TRUE,FALSE,Member Services;ATM;;,,PA,http://www.clearviewfcu.org,16066,2085 Mackenzie Way
40.607496,-80.052913,OMEGA,Wexford Office,Wexford,,United States,TRUE,FALSE,FALSE,FALSE,TRUE,FALSE,FALSE,TRUE,FALSE,TRUE,FALSE,FALSE,Member Services;;;Shared Service Center,,PA,http://www.omegafcu.com,15090-9204,10455 Perry Hwy
40.683105,-80.081726,ELLIOTT COMMUNITY,MSA Cranberry Branch,Cranberry Twp,,United States,FALSE,FALSE,FALSE,FALSE,FALSE,FALSE,FALSE,TRUE,FALSE,TRUE,TRUE,FALSE,Member Services;ATM;;,,PA,http://www.elliottfcu.com,16066-5207,1000 Cranberry Woods Dr
40.633159,-80.055455,CLEARVIEW,Wexford (Retail),Wexford,,United States,FALSE,FALSE,TRUE,FALSE,TRUE,FALSE,FALSE,TRUE,TRUE,TRUE,TRUE,FALSE,Member Services;ATM;;Shared Service Center,,PA,http://www.clearviewfcu.org,15090-6315,3000 Village Run Rd Village at Pine Shopping Center
40.40861,-80.547856,HANCOCK SCHOOL EMP.,Hancock School Employee FCU,Weirton,,United States,TRUE,FALSE,FALSE,FALSE,TRUE,FALSE,FALSE,TRUE,FALSE,TRUE,FALSE,FALSE,Member Services;;;,,WV,http://www.hsefcu.com,26062,384 Penco Rd
40.395328,-80.548802,FIRST CHOICE AMERICA COMMUNITY,Three Springs Drive,Weirton,,United States,FALSE,FALSE,FALSE,FALSE,TRUE,FALSE,FALSE,TRUE,FALSE,FALSE,FALSE,FALSE,Member Services;ATM;Drive Thru;,,WV,http://www.firstchoiceamericacu.org,26062,370 Three Springs Dr
40.574407,-80.016298,GREATER PITTSBURGH,UPMC Passavant Hospital,PITTSBURGH,,United States,FALSE,FALSE,FALSE,FALSE,TRUE,FALSE,FALSE,TRUE,FALSE,TRUE,TRUE,FALSE,Member Services;;;,,PA,http://www.greaterpittsburghfcu.org,15237,9104 Babcock Blvd Suite 1107 A
40.691319,-80.049266,ARMCO,Mars Branch,Mars,,United States,FALSE,FALSE,FALSE,FALSE,FALSE,FALSE,FALSE,TRUE,FALSE,FALSE,FALSE,FALSE,Member Services;ATM;Drive Thru;,,PA,http://www.armcocu.com,16046,1031 Aster Way
40.538563,-80.013365,CLEARVIEW,Ross Township,Pittsburgh,,United States,FALSE,FALSE,TRUE,FALSE,TRUE,FALSE,FALSE,TRUE,TRUE,TRUE,TRUE,FALSE,Member Services;ATM;;,,PA,http://www.clearviewfcu.org,15237-3524,7219 McKnight Rd
40.402627,-80.588729,STRIP STEEL COMMUNITY,CORPORATE OFFICE,WEIRTON,,United States,TRUE,FALSE,FALSE,TRUE,TRUE,FALSE,FALSE,TRUE,FALSE,TRUE,FALSE,FALSE,Member Services;ATM;Drive Thru;,,WV,http://STRIPSTEELCFCU.COM,26062-4704,3316 MAIN St
40.39991,-80.59068,FIRST CHOICE AMERICA COMMUNITY,Main Office,Weirton,,United States,TRUE,FALSE,FALSE,FALSE,TRUE,FALSE,FALSE,TRUE,FALSE,FALSE,FALSE,FALSE,Member Services;ATM;;,,WV,http://www.firstchoiceamericacu.org,26062,3501 Main St
40.408325,-80.086377,SOUTHWEST COMMUNITIES,Main Office,Carnegie,,United States,TRUE,FALSE,FALSE,FALSE,FALSE,FALSE,FALSE,TRUE,FALSE,TRUE,TRUE,FALSE,Member Services;ATM;;,,PA,http://www.swcfcu.org,15106-2438,213 Pine St
40.463469,-80.036206,OMEGA,Beaver Avenue,Pittsburgh,,United States,FALSE,FALSE,FALSE,FALSE,TRUE,FALSE,FALSE,TRUE,FALSE,TRUE,FALSE,FALSE,Member Services;;;,,PA,http://www.omegafcu.com,15233,2515 Preble Ave
40.448975,-80.044402,GREATER PITTSBURGH POLICE,Greater Pittsburgh Police Federal Credit Union,Pittsburgh,,United States,TRUE,FALSE,FALSE,FALSE,FALSE,FALSE,FALSE,FALSE,FALSE,TRUE,FALSE,FALSE,Member Services;;;,,PA,http://www.pittsburghpolicefcu.com,15220-4800,1338 Chartiers Ave
40.404036,-80.084033,UKRAINIAN SELFRELIANCE OF WEST. PA.,Selfreliance Main Office,Carnegie,,United States,TRUE,FALSE,TRUE,FALSE,FALSE,FALSE,FALSE,TRUE,FALSE,TRUE,FALSE,FALSE,Member Services;;;,,PA,http://www.samopomich.com,15106,700 Washington Ave Suite 100
40.530712,-80.002392,OMEGA,North Hills Office,Pittsburgh,,United States,FALSE,FALSE,FALSE,FALSE,TRUE,FALSE,FALSE,TRUE,FALSE,TRUE,FALSE,FALSE,Member Services;;;Shared Service Center,,PA,http://www.omegafcu.com,15237,206 Siebert Rd
40.830785,-80.256231,MULTI-SCHOOLS,Riverside High School Office,Ellwood City,,United States,FALSE,FALSE,FALSE,FALSE,FALSE,FALSE,FALSE,FALSE,FALSE,TRUE,FALSE,FALSE,Member Services;;;Shared Service Center,,PA,https://www.multischoolsfcu.org/,16117-4910,300 Country Club Dr
40.440911,-80.035411,PITTSBURGH FIREFIGHTERS',PGH. FIREFIGHTERS FCU,Pittsburgh,,United States,TRUE,FALSE,FALSE,FALSE,FALSE,FALSE,FALSE,TRUE,FALSE,TRUE,TRUE,TRUE,Member Services;;;,,PA,http://www.pghffcu.org,15220-5402,500 S Main st
40.458,-80.019485,U S POSTAL SERVICE,Pittsburgh,Pittsburgh,,United States,FALSE,FALSE,FALSE,FALSE,TRUE,FALSE,FALSE,TRUE,FALSE,TRUE,FALSE,FALSE,Member Services;;;,,PA,http://www.uspsfcu.org,15290,1001 California Ave
40.366964,-80.100501,VISIONARY,VISIONARY FCU,Bridgeville,,United States,TRUE,FALSE,FALSE,FALSE,FALSE,FALSE,FALSE,TRUE,FALSE,TRUE,FALSE,FALSE,Member Services;;Drive Thru;Shared Service Center,,PA,http://www.visionaryfcu.org,15017-2941,201 Beram Ave
40.8036,-80.13575,FREEDOM UNITED,FREEDOM UNITED FCU,Harmony,,United States,FALSE,FALSE,FALSE,FALSE,TRUE,FALSE,FALSE,TRUE,FALSE,TRUE,FALSE,FALSE,Member Services;ATM;;,,PA,https://www.FREEDOMUNITEDFCU.COM,16037-9205,115 Perry Hwy Ste 176
40.450559,-80.015176,GREATER PITTSBURGH,CCAC North Shore Office,Pittsburgh,,United States,FALSE,FALSE,FALSE,FALSE,TRUE,FALSE,FALSE,TRUE,FALSE,TRUE,TRUE,FALSE,Member Services;;;,,PA,http://www.greaterpittsburghfcu.org,15212-6003,808 Ridge Ave
40.393263,-80.064459,ALLEGENT COMMUNITY,Allegent Community FCU,Pittsburgh,,United States,FALSE,FALSE,FALSE,FALSE,FALSE,FALSE,FALSE,TRUE,FALSE,TRUE,FALSE,FALSE,Member Services;;Drive Thru;,,PA,http://www.allegentfcu.org,15220-1101,1920 Cochran Rd
40.393263,-80.064459,TRI-VALLEY SERVICE,Main Office,Pittsburgh,,United States,TRUE,FALSE,FALSE,FALSE,FALSE,FALSE,FALSE,TRUE,FALSE,TRUE,TRUE,TRUE,Member Services;;Drive Thru;,,PA,http://www.trivalleyservice.com,15220,1920 Cochran Rd
40.446182,-80.011162,POST GAZETTE,POST GAZETTE FCU - PITTSBURGH OFFICE,PITTSBURGH,,United States,FALSE,FALSE,FALSE,TRUE,TRUE,FALSE,FALSE,FALSE,FALSE,FALSE,FALSE,FALSE,Member Services;;;,,PA,http://WWW.POSTGAZETTEFCU.ORG,15212-5876,358 N Shore Dr Fl 3DR
40.457054,-80.003626,OMEGA,Allegheny General Hospital,PITTSBURGH,,United States,FALSE,FALSE,FALSE,FALSE,TRUE,FALSE,FALSE,TRUE,FALSE,TRUE,FALSE,FALSE,Member Services;;;,,PA,http://www.omegafcu.com,15212,320 E NORTH AVE
40.37764,-80.067436,GREATER PITTSBURGH,St. Clair Hospital,Pittsburgh,,United States,FALSE,FALSE,FALSE,FALSE,TRUE,FALSE,FALSE,TRUE,FALSE,TRUE,TRUE,FALSE,Member Services;;;,,PA,http://www.greaterpittsburghfcu.org,15243-1873,1000 Bower Hill Rd
40.812664,-80.126655,WEST-AIRCOMM,West-Aircomm Federal Credit Union,Harmony,,United States,FALSE,FALSE,FALSE,FALSE,FALSE,FALSE,FALSE,TRUE,FALSE,TRUE,TRUE,FALSE,Member Services;ATM;Drive Thru;Shared Service Center,,PA,http://www.westaircomm.com,16037,248 Perry Hwy
40.447776,-80.001204,ALCOA PITTSBURGH,Credit Union Office,Pittsburgh,,United States,TRUE,FALSE,FALSE,FALSE,TRUE,FALSE,FALSE,TRUE,FALSE,TRUE,TRUE,FALSE,Member Services;;;,,PA,http://www.alcoapittfcu.org,15212-5872,201 Isabella St Ste 100
40.447776,-80.001204,ALCOA PITTSBURGH,Alcoa Corporate Center,Pittsburgh,,United States,TRUE,FALSE,FALSE,FALSE,TRUE,FALSE,FALSE,TRUE,FALSE,TRUE,TRUE,FALSE,;ATM;;,,PA,http://www.alcoapittfcu.org,15212-5872,201 Isabella St
40.442228,-80.004584,EQT,EQT FCU,Pittsburgh,,United States,TRUE,FALSE,FALSE,FALSE,FALSE,FALSE,FALSE,TRUE,FALSE,TRUE,FALSE,FALSE,Member Services;;;Shared Service Center,,PA,http://www.eqtfcu.org,15222-1421,603 Stanwix St Ste 1776 Two Gateway Center
40.437961,-80.003563,PAAC TRANSIT DIVISION,Corporate Office,Pittsburgh,,United States,TRUE,FALSE,FALSE,FALSE,FALSE,FALSE,FALSE,TRUE,FALSE,TRUE,TRUE,FALSE,Member Services;;;,,PA,https://www.paacfcu.com,15222,219 Fort Pitt Blvd FL 2
40.439505,-80.00095,ACBA FED CREDIT UNION (3226),ACBA Federal Credit Union,Pittsburgh,,United States,TRUE,FALSE,FALSE,FALSE,TRUE,FALSE,FALSE,FALSE,FALSE,FALSE,FALSE,FALSE,Member Services;;;,,PA,http://www.acbafcu.com,15222,The Bank Tower - Ste 801 307 4th Ave
40.444243,-79.994758,ALLEGENT COMMUNITY,Allegent Community FCU,Pittsburgh,,United States,TRUE,FALSE,FALSE,FALSE,FALSE,FALSE,FALSE,TRUE,FALSE,TRUE,FALSE,FALSE,;;;,,PA,http://www.allegentfcu.org,15222,1001 Liberty Ave Suite 100
40.441819,-79.995723,A T & T EMPLOYEES PITTSBURGH,AT&T Empl. Pgh. PA FCU,Pittsburgh,,United States,TRUE,FALSE,FALSE,FALSE,FALSE,FALSE,FALSE,TRUE,FALSE,TRUE,TRUE,FALSE,Member Services;;;,,PA,http://www.attpghfcu.com,15219-4404,635 Grant St
40.437338,-79.997857,GREATER PITTSBURGH POLICE,City Co - Division of GPPFCU,Pittsburgh,,United States,FALSE,FALSE,FALSE,FALSE,FALSE,FALSE,FALSE,FALSE,FALSE,TRUE,FALSE,FALSE,Member Services;;;,,PA,http://www.pittsburghpolicefcu.com,15219-2123,220 Grant St
40.437989,-79.996933,PITTSBURGH CITY HALL EMPLOYEES,Main Office,Pittsburgh,,United States,TRUE,FALSE,FALSE,FALSE,FALSE,FALSE,FALSE,FALSE,FALSE,FALSE,FALSE,FALSE,Member Services;;;,,PA,https://www.pche-fcu.org,15219-5404,414 Grant St Ste 911
40.37474,-80.051427,OMEGA,Mt. Lebanon,Mt Lebanon,,United States,FALSE,FALSE,FALSE,FALSE,TRUE,FALSE,FALSE,TRUE,FALSE,TRUE,FALSE,FALSE,Member Services;;;,,PA,http://www.omegafcu.com,15228-1128,7 Horsman Dr
40.452247,-79.981189,IRON WORKERS,Iron Workers FCU,Pittsburgh,,United States,TRUE,FALSE,FALSE,FALSE,FALSE,FALSE,FALSE,FALSE,FALSE,TRUE,FALSE,FALSE,Member Services;;;,,PA,http://iwfcu.com,15222-4512,2201 Liberty Ave Ste 201
40.65388,-79.959169,CLEARVIEW,St. Barnabas,Gibsonia,,United States,FALSE,FALSE,TRUE,FALSE,TRUE,FALSE,FALSE,TRUE,TRUE,TRUE,TRUE,FALSE,Member Services;ATM;;,,PA,http://www.clearviewfcu.org,15044-9605,5850 Meridian Rd
40.616402,-79.946465,NORTH DISTRICTS,NORTH DISTRICTS COMMUNITY CREDIT UNION,GIBSONIA,,United States,TRUE,FALSE,FALSE,FALSE,TRUE,FALSE,FALSE,TRUE,FALSE,TRUE,FALSE,FALSE,Member Services;;;,,PA,https://www.ndcupa.org,15044,5321 WILLIAM FLYNN HWY
40.436094,-79.985375,GREATER PITTSBURGH,UPMC MERCY,PITTSBURGH,,United States,FALSE,FALSE,FALSE,FALSE,TRUE,FALSE,FALSE,TRUE,FALSE,TRUE,TRUE,FALSE,Member Services;;;,,PA,http://www.greaterpittsburghfcu.org,15219,1400 Locust St St. Ann Center Room 108
40.444173,-79.97985,HILL DISTRICT,HILL DISTRICT FCU,Pittsburgh,,United States,TRUE,TRUE,FALSE,TRUE,TRUE,FALSE,FALSE,FALSE,FALSE,TRUE,TRUE,FALSE,Member Services;;;,,PA,http://www.hilldistrictfcu.org,15219-6301,2021 Centre Ave
40.429005,-79.988398,ALLEGENT COMMUNITY,Allegent Community FCU,Pittsburgh,,United States,FALSE,FALSE,FALSE,FALSE,FALSE,FALSE,FALSE,TRUE,FALSE,TRUE,FALSE,FALSE,Member Services;ATM;;,,PA,http://www.allegentfcu.org,15203-1142,53 S 10th St
40.466655,-79.964779,NEW ALLIANCE,Lawrencville,Pittsburgh,,United States,FALSE,FALSE,FALSE,FALSE,FALSE,FALSE,FALSE,TRUE,FALSE,TRUE,TRUE,FALSE,Member Services;ATM;;,,PA,https://www.newalliancefcu.com,15201,3709 Butler St
40.291617,-80.174374,U.F.C.W. LOCAL 23,U.F.C.W. Local 23 FCU,Canonsburg,,United States,TRUE,FALSE,FALSE,FALSE,TRUE,FALSE,FALSE,FALSE,FALSE,FALSE,FALSE,FALSE,Member Services;;;,,PA,http://ufcw23fcu.org,15317,345 Southpointe Blvd Suite 110
40.413683,-79.988279,PITTSBURGH,Main Office,Pittsburgh,,United States,TRUE,FALSE,FALSE,FALSE,TRUE,FALSE,FALSE,TRUE,FALSE,TRUE,TRUE,FALSE,Member Services;;;,,PA,http://www.pittsburghfcu.org,15210,317 Brownsville Rd
40.4450207,-79.9603993,VA PITTSBURGH EMPLOYEES,VA Pittsburgh Healthcare-University Drive,Pittsburgh,,United States,FALSE,FALSE,FALSE,TRUE,TRUE,FALSE,FALSE,TRUE,FALSE,TRUE,TRUE,FALSE,Member Services;ATM;;,,PA,http://www.vapghefcu.org,15240,5243 University Drive C
40.442297,-79.960895,GREATER PITTSBURGH,UPMC PRESBY,PITTSBURGH,,United States,FALSE,FALSE,FALSE,FALSE,TRUE,FALSE,FALSE,TRUE,FALSE,TRUE,TRUE,FALSE,Member Services;;;,,PA,http://www.greaterpittsburghfcu.org,15213,200 Lothrop St 11TH Floor
40.894761,-80.343166,MULTI-SCHOOLS,Wampum Main Office,Wampum,,United States,TRUE,FALSE,FALSE,FALSE,FALSE,FALSE,FALSE,FALSE,FALSE,TRUE,FALSE,FALSE,Member Services;;;Shared Service Center,,PA,https://www.multischoolsfcu.org/,16157,1033 Main St
40.461405,-79.946373,OMEGA,West Penn Office,Pittsburgh,,United States,FALSE,FALSE,FALSE,FALSE,TRUE,FALSE,FALSE,TRUE,FALSE,TRUE,FALSE,FALSE,Member Services;;;,,PA,http://www.omegafcu.com,15224,4800 Friendship Ave
40.397351,-79.988432,ALCOSE,Alcose Credit Union,Pittsburgh,,United States,FALSE,FALSE,FALSE,FALSE,TRUE,FALSE,FALSE,FALSE,FALSE,TRUE,FALSE,FALSE,Member Services;;;,,PA,http://www.alcosecu.com,15210-3982,1732 Brownsville Rd
40.4471,-79.951797,GREATER PITTSBURGH,Webster Hall,Pittsburgh,,United States,TRUE,FALSE,FALSE,FALSE,TRUE,FALSE,FALSE,TRUE,FALSE,TRUE,TRUE,FALSE,Member Services;;;,,PA,http://www.greaterpittsburghfcu.org,15213,4415 5th Ave Webster Hall
40.453733,-79.946999,CLEARVIEW,Shadyside,Pittsburgh,,United States,FALSE,FALSE,TRUE,FALSE,TRUE,FALSE,FALSE,TRUE,TRUE,TRUE,TRUE,FALSE,Member Services;ATM;;Shared Service Center,,PA,http://www.clearviewfcu.org,15213-1738,4815 Centre Ave
40.42557,-79.963419,I.B.E.W. - LOCAL NO. 5,main office,Pittsburgh,,United States,TRUE,FALSE,FALSE,FALSE,TRUE,FALSE,FALSE,FALSE,FALSE,FALSE,FALSE,FALSE,Member Services;;;,,PA,http://www.ibew5.virtualcu.net,15203-2351,5 Hot Metal St Ste 201
40.380199,-79.998589,SAINT NORBERT'S,CORPORATE OFFICE,PITTSBURGH,,United States,TRUE,FALSE,FALSE,FALSE,FALSE,FALSE,FALSE,FALSE,FALSE,FALSE,FALSE,FALSE,Member Services;;;,,PA,"",15234,2559 KINGWOOD ST
40.443489,-79.941643,GREATER PITTSBURGH,CMU Campus,Pittsburgh,,United States,FALSE,FALSE,FALSE,FALSE,TRUE,FALSE,FALSE,TRUE,FALSE,TRUE,TRUE,FALSE,Member Services;ATM;;Shared Service Center,,PA,http://www.greaterpittsburghfcu.org,15213-3815,5000 Forbes Ave CUC LL81
40.259595,-80.183338,CLEARVIEW,Canonsburg,Canonsburg,,United States,FALSE,FALSE,TRUE,FALSE,TRUE,FALSE,FALSE,TRUE,TRUE,TRUE,TRUE,FALSE,Member Services;ATM;Drive Thru;Shared Service Center,,PA,http://www.clearviewfcu.org,15317,105 E Pike St
40.489605,-79.895897,SMMH,SMMH,Pittsburgh,,United States,TRUE,FALSE,FALSE,FALSE,FALSE,FALSE,FALSE,FALSE,FALSE,FALSE,FALSE,FALSE,Member Services;;;,,PA,"",15215-3301,815 Freeport Rd
40.496802,-79.890993,VA PITTSBURGH EMPLOYEES,VA Pittsburgh HealthCare-Heinz,Pittsburgh,,United States,TRUE,FALSE,FALSE,TRUE,TRUE,FALSE,FALSE,TRUE,FALSE,TRUE,TRUE,FALSE,Member Services;ATM;;,,PA,http://www.vapghefcu.org,15215,1010 Delafield Rd
40.44795,-79.89596,EAST END FOOD COOPERATIVE,A,Pittsburgh,,United States,TRUE,FALSE,FALSE,TRUE,TRUE,FALSE,FALSE,FALSE,FALSE,FALSE,FALSE,TRUE,Member Services;;;,,PA,https://www.eefcfcu.org,15208,7516 Meade St
40.367119,-79.982785,CLEARVIEW,Brentwood,Brentwood,,United States,FALSE,FALSE,TRUE,FALSE,TRUE,FALSE,FALSE,TRUE,TRUE,TRUE,TRUE,FALSE,Member Services;ATM;;Shared Service Center,,PA,http://www.clearviewfcu.org,15227,330 Towne Square Way
40.344045,-80.014114,CENTURY HERITAGE,05-Bethel Park,Pittsburgh,,United States,FALSE,FALSE,FALSE,FALSE,TRUE,FALSE,FALSE,FALSE,FALSE,TRUE,FALSE,FALSE,Member Services;ATM;;Shared Service Center,,PA,https://chfcu.org,15236-3361,6011 Baptist Rd Ste 200
40.545665,-79.828379,ALLEGHENY VALLEY,Allegheny Valley Federal Credit Union,Pittsburgh,,United States,TRUE,FALSE,FALSE,FALSE,FALSE,FALSE,FALSE,FALSE,FALSE,TRUE,FALSE,FALSE,Member Services;;;,,PA,http://www.alleghenyvalleyfcu.com,15238,250 William Pitt Way Building A10 Room 132
40.353913,-79.978966,ARMCO,Pitsburgh South Hills Branch,Pittsburgh,,United States,FALSE,FALSE,FALSE,FALSE,FALSE,FALSE,FALSE,TRUE,FALSE,FALSE,FALSE,FALSE,Member Services;;;,,PA,http://www.armcocu.com,15236,4712 Clairton Blvd
40.408901,-79.901936,TRI BORO,Tri Boro FCU,Munhall,,United States,TRUE,FALSE,FALSE,FALSE,TRUE,FALSE,FALSE,TRUE,FALSE,TRUE,FALSE,FALSE,Member Services;ATM;Drive Thru;Shared Service Center,,PA,http://www.triboro-fcu.org,15120-1906,600 E 8th Ave
40.541022,-79.816979,CHESWICK ATOMIC DIVISION,Office,Cheswick,,United States,TRUE,FALSE,FALSE,FALSE,FALSE,FALSE,FALSE,FALSE,FALSE,FALSE,FALSE,FALSE,Member Services;;;,,PA,http://cadfcu.com,15024,801 Freeport Rd
40.833317,-79.912994,ARMCO,Armco Employees Credit Union BC3 Branch,Butler,,United States,FALSE,FALSE,FALSE,FALSE,FALSE,FALSE,FALSE,TRUE,FALSE,FALSE,FALSE,FALSE,Member Services;ATM;;,,PA,http://www.armcocu.com,16002-3807,107 College Dr
40.877748,-79.947622,CLEARVIEW,Butler,Butler,,United States,FALSE,FALSE,TRUE,FALSE,TRUE,FALSE,FALSE,TRUE,TRUE,TRUE,TRUE,FALSE,Member Services;ATM;Drive Thru;Shared Service Center,,PA,http://www.clearviewfcu.org,16001,600 Butler Xing
40.854442,-79.909989,ARMCO,Armco Employees Credit Union,Butler,,United States,TRUE,FALSE,FALSE,FALSE,FALSE,FALSE,FALSE,TRUE,FALSE,FALSE,FALSE,FALSE,Member Services;ATM;Drive Thru;,,PA,http://www.armcocu.com,16001-7607,101 Hollywood Dr
40.862263,-79.917997,BUTLER COUNTY TEACHERS,Butler Co Teachers Federal Credit Union,Butler,,United States,TRUE,FALSE,FALSE,FALSE,FALSE,FALSE,FALSE,FALSE,FALSE,FALSE,FALSE,FALSE,Member Services;;;,,PA,http://www.bctfcu.net,16001,112 Campus Ln
40.867739,-79.922127,TOP TIER,Top Tier Federal Credit Union Butler Branch,Butler,,United States,FALSE,FALSE,FALSE,TRUE,TRUE,TRUE,FALSE,TRUE,FALSE,TRUE,FALSE,FALSE,Member Services;ATM;Drive Thru;,,PA,http://www.toptierfcu.org,16001,170 New Castle Rd
40.587423,-79.776644,PPG & ASSOCIATES,PPG & Associates FCU,Creighton,,United States,TRUE,FALSE,FALSE,FALSE,FALSE,FALSE,FALSE,TRUE,FALSE,TRUE,FALSE,FALSE,Member Services;;Drive Thru;,,PA,http://ppgfcu.org,15030-1066,101 Bailies Run Rd
40.587423,-79.776644,PPG & ASSOCIATES,PPG & Associates Federal Credit Union Health South Office,Creighton,,United States,FALSE,FALSE,FALSE,FALSE,FALSE,FALSE,FALSE,TRUE,FALSE,TRUE,FALSE,FALSE,Member Services;ATM;;,,PA,http://ppgfcu.org,15030-1066,101 Bailies Run Rd
40.601771,-79.754548,VALLEY WIDE OF PA,Main Office,Tarentum,,United States,TRUE,FALSE,FALSE,FALSE,TRUE,FALSE,FALSE,FALSE,FALSE,FALSE,TRUE,FALSE,Member Services;;;,,PA,https://www.valleywideofpa.com,15084-1710,209 5th Ave Ste B
40.568374,-79.767973,NEW KENSINGTON MUNICIPAL,Office,New Kensington,,United States,TRUE,FALSE,FALSE,FALSE,TRUE,FALSE,FALSE,FALSE,FALSE,FALSE,FALSE,FALSE,Member Services;;;,,PA,"",15068-6179,301 11th St
40.585461,-79.753123,WESTERN PA,Main Office,New Kensington,,United States,TRUE,FALSE,FALSE,FALSE,FALSE,FALSE,FALSE,TRUE,FALSE,FALSE,FALSE,FALSE,Member Services;;;,,PA,https://iu7federalcreditunion.org,15068-4669,2300 Freeport Rd 15 Feldarelli Square
40.568656,-79.765562,ALLEG-KISKI POSTAL,Main Office,New Kensington,,United States,TRUE,FALSE,FALSE,FALSE,FALSE,FALSE,FALSE,FALSE,FALSE,TRUE,FALSE,FALSE,Member Services;;;,,PA,http://www.akpostalfcu.org,15068,501 11th St
40.618775,-79.736924,AVH,avh federal credit union,natrona heights,,United States,TRUE,FALSE,FALSE,FALSE,FALSE,FALSE,FALSE,FALSE,FALSE,FALSE,FALSE,FALSE,Member Services;;;,,PA,"",15065,1301 carlisle st
40.606162,-79.735773,ALLEGHENY LUDLUM BRACKENRIDGE,MAIN OFFICE,BRACKENRIDGE,,United States,TRUE,FALSE,FALSE,FALSE,TRUE,FALSE,FALSE,FALSE,FALSE,TRUE,FALSE,FALSE,Member Services;;;,,PA,http://www.albfcu.org,15014,1131 BRACKENRIDGE AVE
40.541109,-79.77865,COLFAX POWER PLANT EMPLOYEES,COLFAX POWER PLANT EFCU,SPRINGDALE,,United States,TRUE,FALSE,FALSE,FALSE,FALSE,FALSE,FALSE,FALSE,FALSE,FALSE,FALSE,FALSE,Member Services;;;,,PA,http://www.colfaxpowerplant.com,15144-1623,832 PITTSBURGH ST
40.638122,-79.712044,CLEARVIEW,Natrona Heights,Natrona Heights,,United States,FALSE,FALSE,TRUE,FALSE,TRUE,FALSE,FALSE,TRUE,TRUE,TRUE,TRUE,FALSE,;ATM;;,,PA,http://www.clearviewfcu.org,15065,2861 Freeport Rd
40.584856,-79.706136,CLEARVIEW,Lower Burrell,Lower Burrell,,United States,FALSE,FALSE,TRUE,FALSE,TRUE,FALSE,FALSE,TRUE,TRUE,TRUE,TRUE,FALSE,Member Services;ATM;Drive Thru;Shared Service Center,,PA,http://www.clearviewfcu.org,15068,3271 Leechburg Rd
40.75742,-79.776751,USX,Saxonburg/Sarver,Sarver,,United States,FALSE,FALSE,FALSE,FALSE,TRUE,FALSE,FALSE,TRUE,FALSE,TRUE,FALSE,FALSE,Member Services;ATM;Drive Thru;,,PA,http://www.usxfcu.org,16055,479 N Pike Rd
40.460586,-79.828612,PENN HILLS MUNICIPAL,Penn Hills Municipal FCU,Pittsburgh,,United States,TRUE,FALSE,FALSE,FALSE,FALSE,FALSE,FALSE,FALSE,FALSE,FALSE,FALSE,FALSE,Member Services;;;,,PA,"",15235-3219,102 Duff Rd
40.451432,-79.825461,ALLEGENT COMMUNITY,Allegent Community FCU,Pittsburgh,,United States,FALSE,FALSE,FALSE,FALSE,FALSE,FALSE,FALSE,TRUE,FALSE,TRUE,FALSE,FALSE,Member Services;;;,,PA,http://www.allegentfcu.org,15235-4523,539 Rodi Rd
40.629517,-79.606795,CENTURY HERITAGE,09-Leechburg,Leechburg,,United States,FALSE,FALSE,FALSE,FALSE,TRUE,FALSE,FALSE,FALSE,FALSE,TRUE,FALSE,FALSE,Member Services;ATM;;,,PA,https://chfcu.org,15656-1241,260 Pershing Ave
40.429413,-79.810563,CLEARVIEW,Monroeville,Pittsburgh,,United States,FALSE,FALSE,TRUE,FALSE,TRUE,FALSE,FALSE,TRUE,TRUE,TRUE,TRUE,FALSE,Member Services;ATM;;Shared Service Center,,PA,http://www.clearviewfcu.org,15235-5413,3460 William Penn Hwy Ste C
40.602126,-79.606149,PHEPLE,Kiski Area Student Branch,leechburg,,United States,FALSE,FALSE,FALSE,TRUE,TRUE,TRUE,TRUE,FALSE,FALSE,TRUE,FALSE,TRUE,Member Services;;;,,PA,http://www.pheplefcu.org,15656,240 hyde park rd
40.43187,-79.75065,TRI BORO,Tri Boro FCU,Monroeville,,United States,FALSE,FALSE,FALSE,FALSE,TRUE,FALSE,FALSE,TRUE,FALSE,TRUE,FALSE,FALSE,Member Services;;;Shared Service Center,,PA,http://www.triboro-fcu.org,15146-3392,2644 Mosside Blvd Ste 119 Mosside Village Shopping Center
40.4042,-79.8384,TRI STATE RAIL,East Pittsburgh,East Pittsburgh,,United States,FALSE,FALSE,FALSE,FALSE,TRUE,FALSE,FALSE,FALSE,TRUE,TRUE,FALSE,FALSE,Member Services;;;,,PA,http://www.tristaterailfcu.com,15112,711 Linden Ave
40.40015,-79.8356,URE,URE Federal Credit Union,East Pittsburgh,,United States,TRUE,FALSE,FALSE,FALSE,TRUE,FALSE,FALSE,FALSE,FALSE,TRUE,FALSE,FALSE,Member Services;;;,,PA,http://urefcu.org,15112,201 Beech St
40.395349,-79.80538,UNITED COMMUNITY,Wilmerding Office,Wilmerding,,United States,FALSE,FALSE,FALSE,FALSE,FALSE,FALSE,FALSE,TRUE,FALSE,TRUE,FALSE,FALSE,Member Services;ATM;Drive Thru;Shared Service Center,,PA,http://www.unitedcommunityfcu.org,15148-1007,201 Airbrake Ave
40.424207,-79.700311,ELLIOTT COMMUNITY,MSA Murrysville Branch,Murrysville,,United States,FALSE,FALSE,FALSE,FALSE,FALSE,FALSE,FALSE,TRUE,FALSE,TRUE,TRUE,FALSE,Member Services;ATM;;,,PA,http://www.elliottfcu.com,15668,3880 Meadowbrook Rd
40.381615,-79.876955,CENTURY HERITAGE,07-Homeville,West Mifflin,,United States,FALSE,FALSE,FALSE,FALSE,TRUE,FALSE,FALSE,FALSE,FALSE,TRUE,FALSE,FALSE,Member Services;ATM;Drive Thru;Shared Service Center,,PA,https://chfcu.org,15122-2956,4917 Homeville Rd
40.3686,-79.8947,STEEL STRONG COMMUNITY,Steel Strong Community Federal Credit Union,West Mifflin,,United States,TRUE,FALSE,FALSE,FALSE,TRUE,FALSE,FALSE,TRUE,FALSE,TRUE,FALSE,FALSE,Member Services;ATM;;,,PA,http://www.steelstrongcfcu.org,15122,1301 Camp Hollow Rd
40.389306,-79.724835,PENN-TRAFFORD SCHOOL EMP.,Penn-Trafford School Emp. FCU,Trafford,,United States,TRUE,FALSE,FALSE,FALSE,TRUE,FALSE,FALSE,FALSE,FALSE,FALSE,FALSE,FALSE,Member Services;;;,,PA,"",15085-1348,612 State Route 130 Apt 2
40.348453,-79.86351,MCKEESPORT CONGREGATIONAL,Evangelical Congregational Church,McKeesport,,United States,FALSE,FALSE,FALSE,FALSE,TRUE,FALSE,FALSE,FALSE,FALSE,FALSE,FALSE,FALSE,Member Services;;;,,PA,"",15132,312 Olive St
40.837413,-79.618675,MOONLIGHT CREDIT UNION,Moonlight Credit Union,Worthington,,United States,TRUE,FALSE,FALSE,FALSE,TRUE,FALSE,FALSE,TRUE,FALSE,TRUE,FALSE,FALSE,Member Services;;;,,PA,http://www.moonlightcu.com,16262,101 Deer Park Rd
40.963929,-80.307649,SCA,CORPORATE OFFICE,NEW CASTLE,,United States,TRUE,FALSE,FALSE,FALSE,FALSE,FALSE,FALSE,TRUE,FALSE,TRUE,FALSE,FALSE,Member Services;;Drive Thru;,,PA,http://shenangochinafcu.com,16101,2656 ELLWOOD RD UNIT 1
40.989997,-80.347985,FAMILY 1ST,Family 1st Federal Credit Union,New Castle,,United States,TRUE,FALSE,FALSE,FALSE,FALSE,FALSE,FALSE,TRUE,FALSE,TRUE,FALSE,FALSE,Member Services;;;,,PA,http://www.family1stfcu.com,16101-3916,917 Moravia St
40.98972,-80.321645,FIRST CHOICE,First Choice FCU,New Castle,,United States,FALSE,FALSE,FALSE,FALSE,TRUE,FALSE,FALSE,TRUE,FALSE,TRUE,FALSE,FALSE,Member Services;ATM;Drive Thru;,,PA,https://www.firstchoicefcu.com,16101-4264,1144 Butler Ave
40.997629,-80.346742,GNC COMMUNITY,GNC Community FCU,New Castle,,United States,TRUE,FALSE,FALSE,FALSE,TRUE,FALSE,FALSE,TRUE,FALSE,TRUE,FALSE,TRUE,Member Services;ATM;Drive Thru;,,PA,http://www.gncfcu.com,16101,201 S Jefferson St
41.007891,-80.384188,FIRST CHOICE,First Choice FCU,New Castle,,United States,TRUE,FALSE,FALSE,FALSE,TRUE,FALSE,FALSE,TRUE,FALSE,TRUE,FALSE,FALSE,Member Services;ATM;Drive Thru;,,PA,https://www.firstchoicefcu.com,16101-1138,2209 W State St
41.011247,-80.350384,NEW CASTLE BELLCO,NEW CASTLE BELLCO FCU,New Castle,,United States,TRUE,FALSE,FALSE,FALSE,FALSE,FALSE,FALSE,TRUE,FALSE,TRUE,FALSE,FALSE,Member Services;;;,,PA,http://WWW.NEWCASTLEBELLCO.COM,16101,1011 Wilmington Ave
41.040012,-80.3569,FIRST CHOICE,First Choice FCU,New Castle,,United States,FALSE,FALSE,FALSE,FALSE,TRUE,FALSE,FALSE,TRUE,FALSE,TRUE,FALSE,FALSE,Member Services;ATM;Drive Thru;,,PA,https://www.firstchoicefcu.com,16105-1232,2810 Wilmington Rd
41.04132,-80.357983,GNC COMMUNITY,Wilmington Branch,New Castle,,United States,FALSE,FALSE,FALSE,FALSE,TRUE,FALSE,FALSE,TRUE,FALSE,TRUE,FALSE,TRUE,Member Services;ATM;Drive Thru;,,PA,http://www.gncfcu.com,16105-1233,2907 Wilmington Rd
41.057275,-80.071213,SRU,SRU Federal Credit Union,Slippery Rock,,United States,TRUE,FALSE,FALSE,FALSE,TRUE,FALSE,FALSE,TRUE,FALSE,TRUE,FALSE,FALSE,Member Services;ATM;Drive Thru;,,PA,http://www.srufcu.org,16057-2632,100 Arrowhead Dr
41.151828,-80.135001,GROVE CITY AREA,GROVE CITY AREA FCU,GROVE CITY,,United States,TRUE,FALSE,FALSE,FALSE,TRUE,FALSE,FALSE,TRUE,FALSE,TRUE,FALSE,FALSE,Member Services;ATM;Drive Thru;,,PA,http://www.gcafcu.org,16127,1600 S CENTER STREET EXT
40.137663,-79.845999,VALLEY 1ST COMMUNITY,VALLEY 1ST COMMUNITY FEDERAL CREDIT UNION,Rostraver Township,,United States,FALSE,FALSE,FALSE,FALSE,FALSE,FALSE,FALSE,TRUE,FALSE,TRUE,FALSE,FALSE,Member Services;ATM;;,,PA,http://WWW.VALLEY1ST.ORG,15012-1963,100 SARA WAY
40.13343,-79.842585,BVA,BVA Federal Credit Union,Belle Vernon,,United States,TRUE,FALSE,FALSE,FALSE,TRUE,FALSE,FALSE,TRUE,FALSE,TRUE,FALSE,FALSE,Member Services;;Drive Thru;,,PA,http://www.bvafcu.com,15012-1941,608 Rostraver Rd
40.161641,-79.89025,VALLEY 1ST COMMUNITY,VALLEY 1ST COMMUNITY FEDERAL CREDIT UNION,MONESSEN,,United States,TRUE,FALSE,FALSE,FALSE,FALSE,FALSE,FALSE,TRUE,FALSE,TRUE,FALSE,FALSE,Member Services;ATM;Drive Thru;,,PA,http://WWW.VALLEY1ST.ORG,15062-1008,815 SCHOONMAKER AVE
40.100124,-79.845375,MON VALLEY COMMUNITY,Mon Valley Community FCU,Allenport,,United States,TRUE,FALSE,FALSE,FALSE,FALSE,FALSE,FALSE,FALSE,FALSE,TRUE,FALSE,FALSE,Member Services;ATM;Drive Thru;,,PA,http://www.mvcfcu.com,15412,1932 Main Street
40.130324,-79.889585,FRICK FINANCIAL,Charleroi Office,Charleroi,,United States,FALSE,FALSE,FALSE,FALSE,FALSE,FALSE,FALSE,TRUE,FALSE,TRUE,FALSE,FALSE,Member Services;ATM;Drive Thru;,,PA,http://www.frickfin.org,15022,141 Pennsylvania Ave
40.0756,-79.897,NEWELL,Newell FCU,Newell,,United States,TRUE,FALSE,FALSE,FALSE,FALSE,FALSE,FALSE,TRUE,FALSE,TRUE,FALSE,FALSE,Member Services;;;,,PA,http://NEWELLFCU.ORG,15466,309 Long St
40.280399,-79.835381,STEEL STRONG COMMUNITY,Steel Strong Community Federal Credit Union - Elizabeth Office,Elizabeth,,United States,FALSE,FALSE,FALSE,FALSE,TRUE,FALSE,FALSE,TRUE,FALSE,TRUE,FALSE,FALSE,Member Services;;;,,PA,http://www.steelstrongcfcu.org,15037,1125 Swiss Way
40.054259,-79.912704,CAL-ED,Cal-Ed  Federal Credit Union,COAL CENTER,,United States,TRUE,FALSE,FALSE,FALSE,FALSE,FALSE,FALSE,TRUE,FALSE,TRUE,FALSE,FALSE,Member Services;ATM;Drive Thru;,,PA,http://www.cal-ed.com,15423,100 TECHNOLOGY DR
40.292128,-79.874725,CLAIRTON WORKS,Clairton Works FCU,Clairton,,United States,TRUE,FALSE,FALSE,FALSE,TRUE,FALSE,FALSE,FALSE,FALSE,TRUE,FALSE,FALSE,Member Services;;;,,PA,http://www.clairtonworksfcu.com,15025,600 State St Unit 3
40.29666,-79.881357,MORNING STAR BAPTIST,Morning Star Baptist,Clairton,,United States,TRUE,TRUE,FALSE,FALSE,FALSE,FALSE,FALSE,FALSE,FALSE,FALSE,FALSE,FALSE,Member Services;;;,,PA,"",15025,307 Shaw Ave
40.022757,-79.880702,NEWELL,Newell FCU Brownsville Office,Brownsville,,United States,FALSE,FALSE,FALSE,FALSE,FALSE,FALSE,FALSE,TRUE,FALSE,TRUE,FALSE,FALSE,Member Services;;;,,PA,http://NEWELLFCU.ORG,15417,325 Market Street
40.322206,-79.834076,CENTURY HERITAGE,03-Olympia Branch,MCKEESPORT,,United States,FALSE,FALSE,FALSE,FALSE,TRUE,FALSE,FALSE,FALSE,FALSE,TRUE,FALSE,FALSE,Member Services;ATM;;Shared Service Center,,PA,https://chfcu.org,15132-6127,4313 WALNUT ST STE 14 OLYMPIA SHOPPING CTR
40.2194,-79.6104442,USX,New Stanton,New Stanton,,United States,FALSE,FALSE,FALSE,FALSE,TRUE,FALSE,FALSE,TRUE,FALSE,TRUE,FALSE,FALSE,Member Services;ATM;Drive Thru;,,PA,http://www.usxfcu.org,15672,305 North Center Ave
40.232135,-79.616279,STANWOOD AREA,Main Office,New Stanton,,United States,TRUE,FALSE,FALSE,TRUE,FALSE,FALSE,FALSE,TRUE,FALSE,TRUE,FALSE,FALSE,Member Services;;Drive Thru;,,PA,http://www.stanwoodareafcu.org,15672,444 Arona Rd
40.216318,-79.60668,G.A.P.,New Stanton,New Stanton,,United States,FALSE,FALSE,FALSE,FALSE,TRUE,FALSE,TRUE,TRUE,FALSE,TRUE,TRUE,FALSE,Member Services;;;,,PA,http://www.gapfcu.org,15672-9807,111 S Center Ave Ste 2
40.327983,-79.83988,ALLEGENT COMMUNITY,Allegent Community FCU,McKeesport,,United States,FALSE,FALSE,FALSE,FALSE,FALSE,FALSE,FALSE,TRUE,FALSE,TRUE,FALSE,FALSE,Member Services;;;,,PA,http://www.allegentfcu.org,15132-7229,316 36th St
40.321179,-79.72759,NORWIN TEACHERS,Norwin Intermediate School,North Huntingdon,,United States,FALSE,FALSE,FALSE,FALSE,FALSE,FALSE,TRUE,TRUE,FALSE,TRUE,FALSE,FALSE,Member Services;;;,,PA,http://www.norwinteachersfcu.org,15642,11091 Mockingbird Dr
40.328428,-79.737471,NORWIN TEACHERS,Main Office,North Huntingdon,,United States,TRUE,FALSE,FALSE,FALSE,FALSE,FALSE,TRUE,TRUE,FALSE,TRUE,FALSE,FALSE,Member Services;ATM;Drive Thru;,,PA,http://www.norwinteachersfcu.org,15642,183 Clay Pike
40.325025,-79.724019,NORWIN TEACHERS,Norwin High School Student Branch,North Huntingdon,,United States,FALSE,FALSE,FALSE,FALSE,FALSE,FALSE,TRUE,TRUE,FALSE,TRUE,FALSE,FALSE,Member Services;ATM;;,,PA,http://www.norwinteachersfcu.org,15642-2403,251 McMahon Dr
40.32693,-79.892191,COPPER & GLASS,COPPER & GLASS FCU,GLASSPORT,,United States,TRUE,FALSE,FALSE,FALSE,FALSE,FALSE,FALSE,FALSE,FALSE,TRUE,TRUE,FALSE,Member Services;;;,,PA,https://www.copperandglassfcu.com/,15045,531 MONONGAHELA ave
40.341935,-79.82861,CLEARVIEW,McKeesport,McKeesport,,United States,FALSE,FALSE,TRUE,FALSE,TRUE,FALSE,FALSE,TRUE,TRUE,TRUE,TRUE,FALSE,Member Services;ATM;;Shared Service Center,,PA,http://www.clearviewfcu.org,15132-7621,2100 Eden Park Blvd
40.046806,-79.982572,CENTERVILLE CLINICS EMPLOYEES,Centerville Clinics Employee FCU,Fredericktown,,United States,TRUE,FALSE,FALSE,FALSE,FALSE,FALSE,FALSE,FALSE,FALSE,FALSE,FALSE,FALSE,Member Services;;;,,PA,"",15333-2114,1070 Old National Pike
40.344562,-79.798436,ALCOSE,Alcose Credit Union,White Oak,,United States,TRUE,FALSE,FALSE,FALSE,TRUE,FALSE,FALSE,FALSE,FALSE,TRUE,FALSE,FALSE,Member Services;;;,,PA,http://www.alcosecu.com,15131-2555,3001 Jacks Run Rd Ste 101
40.344059,-79.838248,MCKEESPORT CONGREGATIONAL,Credit Union,McKeesport,,United States,TRUE,FALSE,FALSE,FALSE,TRUE,FALSE,FALSE,FALSE,FALSE,FALSE,FALSE,FALSE,Member Services;;;,,PA,"",15132,1313 Wilson St
40.317875,-79.933449,USX,Jefferson Regional Medical Center,Jefferson Hills,,United States,FALSE,FALSE,FALSE,FALSE,TRUE,FALSE,FALSE,TRUE,FALSE,TRUE,FALSE,FALSE,Member Services;ATM;;,,PA,http://www.usxfcu.org,15025,565 Coal Valley Rd
40.346145,-79.835216,MCKEESPORT AREA PUBLIC SCHOOL EMP,MAIN OFFICE,MCKEESPORT,,United States,TRUE,FALSE,FALSE,FALSE,FALSE,FALSE,FALSE,FALSE,FALSE,FALSE,FALSE,FALSE,Member Services;;;,,PA,"",15132-1641,3590 ONEIL BLVD
40.33,-79.9451,CLEARVIEW,Pleasant Hills,West Mifflin,,United States,FALSE,FALSE,TRUE,FALSE,TRUE,FALSE,FALSE,TRUE,TRUE,TRUE,TRUE,FALSE,Member Services;ATM;;,,PA,http://www.clearviewfcu.org,15236,613 Clairton Blvd
40.232098,-79.565547,PHEPLE,WCCC Branch,youngwood,,United States,FALSE,FALSE,FALSE,TRUE,TRUE,TRUE,TRUE,FALSE,FALSE,TRUE,FALSE,TRUE,Member Services;;;,,PA,http://www.pheplefcu.org,15697-1814,145 pavilion ln
40.2786,-79.597,HEMPFIELD AREA,Hempfield Area Federal Credit Union,Greensburg,,United States,TRUE,FALSE,FALSE,FALSE,TRUE,FALSE,FALSE,FALSE,FALSE,FALSE,FALSE,FALSE,Member Services;;;,,PA,https://www.hempfieldareafcu.com,15601-6433,151 Bus Garage Rd
40.142408,-79.547178,THE UNITED,The United Federal Credit Union,Mount Pleasant,,United States,FALSE,FALSE,FALSE,FALSE,FALSE,FALSE,FALSE,TRUE,FALSE,TRUE,FALSE,FALSE,Member Services;ATM;Drive Thru;,,PA,http://www.tufcu.org,15666-3588,6610 State Route 819
40.160187,-79.543754,MT PLEASANT AREA SCHOOL EMP,"Mount Pleasant Area School Employees, FCU",Mount Pleasant,,United States,TRUE,FALSE,FALSE,FALSE,TRUE,FALSE,FALSE,FALSE,FALSE,FALSE,FALSE,FALSE,Member Services;;;,,PA,"",15666-1110,505 N Church St
40.10178,-80.062018,CENTERVILLE CLINICS EMPLOYEES,Crystal Nuttall,Cokeburg,,United States,FALSE,FALSE,FALSE,FALSE,FALSE,FALSE,FALSE,FALSE,FALSE,FALSE,FALSE,FALSE,Member Services;;;,,PA,"",15324,11 Madison St
40.343517,-79.940195,UNITED COMMUNITY,Main Office,West Mifflin,,United States,TRUE,FALSE,FALSE,FALSE,FALSE,FALSE,FALSE,TRUE,FALSE,TRUE,FALSE,FALSE,Member Services;ATM;Drive Thru;Shared Service Center,,PA,http://www.unitedcommunityfcu.org,15122-2425,6010 Mountain View Dr
40.264055,-79.56411,PHEPLE,Willow Crossing,Greensburg,,United States,FALSE,FALSE,FALSE,TRUE,TRUE,TRUE,TRUE,FALSE,FALSE,TRUE,FALSE,TRUE,Member Services;ATM;Drive Thru;Shared Service Center,,PA,http://www.pheplefcu.org,15601,708 State Route 119
40.344044,-79.954321,CENTURY HERITAGE,04-West Mifflin,PITTSBURGH,,United States,TRUE,FALSE,FALSE,FALSE,TRUE,FALSE,FALSE,FALSE,FALSE,TRUE,FALSE,FALSE,Member Services;ATM;Drive Thru;Shared Service Center,,PA,https://chfcu.org,15236-1425,700 REGIS AVE
40.299775,-80.030654,PENNSYLVANIA-AMERICAN WATER,Pennsylvania-American Water FCU,Bethel Park,,United States,TRUE,FALSE,FALSE,FALSE,FALSE,FALSE,FALSE,FALSE,FALSE,TRUE,FALSE,FALSE,Member Services;;Drive Thru;,,PA,http://www.pawfcu.com,15102-4026,6050 Library Rd
40.323585,-79.610126,ELLIOTT COMMUNITY,Jeannette Rubber FCU Branch,Jeannette,,United States,FALSE,FALSE,FALSE,FALSE,FALSE,FALSE,FALSE,TRUE,FALSE,TRUE,TRUE,FALSE,Member Services;ATM;Drive Thru;,,PA,http://www.elliottfcu.com,15644,100 Lewis Ave
40.273403,-79.55577,WESTMORELAND WATER,Main office,Greensburg,,United States,TRUE,FALSE,FALSE,FALSE,TRUE,FALSE,FALSE,TRUE,FALSE,TRUE,TRUE,FALSE,Member Services;;;,,PA,http://www.wwcu.org,15601-5563,1900 Franklin St
40.019073,-79.589452,GLASS CAP,Main Office,Connellsville,,United States,TRUE,FALSE,FALSE,FALSE,FALSE,FALSE,FALSE,TRUE,FALSE,TRUE,FALSE,FALSE,Member Services;ATM;Drive Thru;,,PA,http://www.glasscapfcu.com,15425-3209,241 N Pittsburgh St
39.991932,-79.624666,ALLEGHENY CENTRAL,Main Office,Dunbar,,United States,TRUE,FALSE,FALSE,FALSE,TRUE,FALSE,FALSE,FALSE,FALSE,TRUE,TRUE,FALSE,Member Services;;;,,PA,http://www.acefcu.org,15431-2305,1253 University Dr Ste 100
40.356033,-79.654397,PHEPLE,Penn Trafford Student Branch,Harrison City,,United States,FALSE,FALSE,FALSE,TRUE,TRUE,TRUE,TRUE,FALSE,FALSE,TRUE,FALSE,TRUE,Member Services;;;,,PA,http://www.pheplefcu.org,15636,3381 Route 130
40.274683,-79.550764,PHEPLE,Administrative Offices,Greensburg,,United States,TRUE,FALSE,FALSE,TRUE,TRUE,TRUE,TRUE,FALSE,FALSE,TRUE,FALSE,TRUE,;;;,,PA,http://www.pheplefcu.org,15601-5536,230 Theobold Ave
40.286659,-79.556117,PHEPLE,Greensburg Central Catholic High School,Greensburg,,United States,FALSE,FALSE,FALSE,TRUE,TRUE,TRUE,TRUE,FALSE,FALSE,TRUE,FALSE,TRUE,Member Services;;;,,PA,http://www.pheplefcu.org,15601-5209,911 Armory Dr
40.337444,-79.607479,ELLIOTT COMMUNITY,Elliott Federal Credit Union,Jeannette,,United States,TRUE,FALSE,FALSE,FALSE,FALSE,FALSE,FALSE,TRUE,FALSE,TRUE,TRUE,FALSE,Member Services;;;,,PA,http://www.elliottfcu.com,15644,920 N 4th St
40.363888,-79.645471,PHEPLE,Penn Valley,Jeannette,,United States,FALSE,FALSE,FALSE,TRUE,TRUE,TRUE,TRUE,FALSE,FALSE,TRUE,FALSE,TRUE,Member Services;ATM;;Shared Service Center,,PA,http://www.pheplefcu.org,15644-4309,1075 Harrison City Export Rd
40.300911,-79.555641,USX,Greensburg Office,Greensburg,,United States,FALSE,FALSE,FALSE,FALSE,TRUE,FALSE,FALSE,TRUE,FALSE,TRUE,FALSE,FALSE,Member Services;ATM;;,,PA,http://www.usxfcu.org,15601-2239,532 W Pittsburgh St Ste 1
40.280746,-80.08206,TRI BORO,Tri Boro FCU,McMurray,,United States,FALSE,FALSE,FALSE,FALSE,TRUE,FALSE,FALSE,TRUE,FALSE,TRUE,FALSE,FALSE,Member Services;ATM;Drive Thru;Shared Service Center,,PA,http://www.triboro-fcu.org,15317,617 E McMurray Rd
40.279595,-80.084235,CLEARVIEW,McMurray,McMurray,,United States,FALSE,FALSE,TRUE,FALSE,TRUE,FALSE,FALSE,TRUE,TRUE,TRUE,TRUE,FALSE,Member Services;ATM;Drive Thru;Shared Service Center,,PA,http://www.clearviewfcu.org,15317-3449,465 Valley Brook Rd Clearview Commons Suite 600
40.3009,-79.5372,U.A.L.U. 354,UALU 354 FCU,GREENSBURG,,United States,TRUE,FALSE,FALSE,FALSE,TRUE,FALSE,FALSE,TRUE,FALSE,TRUE,FALSE,FALSE,Member Services;;;,,PA,"",15601,271 ARMBRUST RD
40.277314,-79.519173,GREENSBURG TEACHERS,Greensburg Teachers CU,GREENSBURG,,United States,TRUE,FALSE,FALSE,FALSE,FALSE,FALSE,FALSE,FALSE,FALSE,FALSE,FALSE,FALSE,Member Services;;;,,PA,"",15601-5947,270 ARBOR HILL RD
40.31298,-79.547657,ELLIOTT COMMUNITY,Elliott Community FCU Greensburg Branch,Greensburg,,United States,FALSE,FALSE,FALSE,FALSE,FALSE,FALSE,FALSE,TRUE,FALSE,TRUE,TRUE,FALSE,Member Services;;;,,PA,http://www.elliottfcu.com,15601,631 N Main St
40.361975,-79.59217,FRANKLIN REGIONAL SCHOOLS,Main Office,Jeannette,,United States,TRUE,FALSE,FALSE,FALSE,TRUE,FALSE,FALSE,FALSE,FALSE,FALSE,FALSE,TRUE,Member Services;;;,,PA,http://www.frsfcu.com,15644-4548,4068 Bushy Run Rd
39.918804,-79.697651,FAYETTE COUNTY SCHOOL EMPLOYEES,Fayette County School Employees Credit Union,Uniontown,,United States,TRUE,FALSE,FALSE,FALSE,FALSE,FALSE,TRUE,TRUE,FALSE,TRUE,FALSE,FALSE,;;;,,PA,http://www.fayetteschoolcu.org,15401,193 Edison St
39.918804,-79.697651,FAYETTE COUNTY SCHOOL EMPLOYEES,Fayette County School Employees Credit Union,Uniontown,,United States,TRUE,FALSE,FALSE,FALSE,FALSE,FALSE,TRUE,TRUE,FALSE,TRUE,FALSE,FALSE,Member Services;;;,,PA,http://www.fayetteschoolcu.org,15401,193 Edison St
39.909435,-79.727573,FRICK FINANCIAL,Uniontown Office,Uniontown,,United States,TRUE,FALSE,FALSE,FALSE,FALSE,FALSE,FALSE,TRUE,FALSE,TRUE,FALSE,FALSE,Member Services;ATM;Drive Thru;,,PA,http://www.frickfin.org,15401-2751,235 Pittsburgh St
40.272599,-80.125028,CENTURY HERITAGE,06-McMurray,McMurray,,United States,FALSE,FALSE,FALSE,FALSE,TRUE,FALSE,FALSE,FALSE,FALSE,TRUE,FALSE,FALSE,Member Services;ATM;;,,PA,https://chfcu.org,15317-2901,115 E McMurray Rd
40.301019,-79.501428,FIRSTENERGY CHOICE,FirstEnergy Choice Federal Credit Union,Greensburg,,United States,TRUE,FALSE,FALSE,FALSE,FALSE,FALSE,FALSE,TRUE,FALSE,TRUE,FALSE,FALSE,Member Services;;;,,PA,http://www.fechoice.com,15601,161 Old Route 30 Suite 2
40.300898,-79.498019,PHEPLE,EastGate,Greensburg,,United States,FALSE,FALSE,FALSE,TRUE,TRUE,TRUE,TRUE,FALSE,FALSE,TRUE,FALSE,TRUE,Member Services;ATM;;Shared Service Center,,PA,http://www.pheplefcu.org,15601-7870,5142 State Route 30 Ste 105
39.890703,-79.734976,FAYETTE FEDERAL EMPLOYEES,Fayette Federal EFCU,Uniontown,,United States,TRUE,FALSE,FALSE,FALSE,FALSE,FALSE,FALSE,TRUE,FALSE,TRUE,FALSE,FALSE,Member Services;;Drive Thru;,,PA,http://www.ffefcu.org,15401,364 Morgantown St
40.288712,-79.476059,GREATER LATROBE SCHOOLS,office,Greensburg,,United States,TRUE,FALSE,FALSE,FALSE,FALSE,FALSE,FALSE,FALSE,FALSE,FALSE,FALSE,FALSE,;;;,,PA,"",15601,3202 Attleboro Rd
39.882629,-79.735062,THE UNITED,The United Federal Credit Union,Uniontown,,United States,FALSE,FALSE,FALSE,FALSE,FALSE,FALSE,FALSE,TRUE,FALSE,TRUE,FALSE,FALSE,Member Services;ATM;Drive Thru;,,PA,http://www.tufcu.org,15401,585 Morgantown Rd
40.39978,-79.588304,CLEARVIEW,Delmont,Delmont,,United States,FALSE,FALSE,TRUE,FALSE,TRUE,FALSE,FALSE,TRUE,TRUE,TRUE,TRUE,FALSE,Member Services;ATM;;Shared Service Center,,PA,http://www.clearviewfcu.org,15626-2413,6750 Hollywood Blvd Ste 450
40.770162,-79.530986,ARMSTRONG ASSOCIATES,Ford City Office,Ford City,,United States,TRUE,FALSE,FALSE,FALSE,FALSE,FALSE,FALSE,TRUE,FALSE,TRUE,FALSE,FALSE,Member Services;;;Shared Service Center,,PA,http://www.myaafcu.com,16226,414 Ford St
40.81457,-79.56563,ARMSTRONG ASSOCIATES,West Hills Branch,Kittanning,,United States,FALSE,FALSE,FALSE,FALSE,FALSE,FALSE,FALSE,TRUE,FALSE,TRUE,FALSE,FALSE,Member Services;ATM;Drive Thru;Shared Service Center,,PA,http://www.myaafcu.com,16201-7118,92 Glade Dr
40.81628,-79.520386,ARMSTRONG CO. FEDERAL EMP.,ARMSTRONG CO. FEDERAL EMP.FCU,Kittanning,,United States,TRUE,FALSE,FALSE,FALSE,TRUE,FALSE,FALSE,FALSE,FALSE,TRUE,FALSE,FALSE,Member Services;;;,,PA,"",16201-1300,201 N McKean St Kittanning Post Office
40.222926,-80.209237,CHROME,Racetrack Branch,Washington,,United States,FALSE,FALSE,FALSE,FALSE,TRUE,FALSE,TRUE,TRUE,FALSE,TRUE,FALSE,FALSE,Member Services;ATM;;,,PA,https://www.chromefcu.org,15301,440 Racetrack Rd
40.201587,-80.211247,WASHINGTON AREA TEACHERS,Washington Area Teachers FCU,Washington,,United States,TRUE,FALSE,FALSE,TRUE,TRUE,FALSE,TRUE,TRUE,FALSE,TRUE,TRUE,FALSE,Member Services;ATM;Drive Thru;,,PA,http://www.watfcu.org,15301,75 Landings Drive
40.183844,-80.270008,CHROME,Headquarters,Washington,,United States,TRUE,FALSE,FALSE,FALSE,TRUE,FALSE,TRUE,TRUE,FALSE,TRUE,FALSE,FALSE,Member Services;ATM;Drive Thru;,,PA,https://www.chromefcu.org,15301-2286,45 Griffith Ave
40.183844,-80.270008,CHROME,Washington Branch,Washington,,United States,FALSE,FALSE,FALSE,FALSE,TRUE,FALSE,TRUE,TRUE,FALSE,TRUE,FALSE,FALSE,Member Services;ATM;Drive Thru;,,PA,https://www.chromefcu.org,15301,45 Griffith Ave
40.165577,-80.24464,UNITED COMMUNITY,Washington Branch,Washington,,United States,FALSE,FALSE,FALSE,FALSE,FALSE,FALSE,FALSE,TRUE,FALSE,TRUE,FALSE,FALSE,Member Services;ATM;;Shared Service Center,,PA,http://www.unitedcommunityfcu.org,15301-6367,331 S Main St
40.175618,-80.273054,JESSOP COMMUNITY,Main Office,Washington,,United States,TRUE,FALSE,FALSE,FALSE,TRUE,FALSE,FALSE,TRUE,FALSE,TRUE,FALSE,FALSE,Member Services;ATM;Drive Thru;,,PA,http://www.jessopfcu.org,15301-2338,1100 Green St
40.154156,-80.214013,U.F.C.W. LOCAL 23,Carrie L DeMotte,Washington,,United States,FALSE,FALSE,FALSE,FALSE,TRUE,FALSE,FALSE,FALSE,FALSE,FALSE,FALSE,FALSE,Member Services;;;,,PA,http://ufcw23fcu.org,15301-3113,1774 E Maiden St
40.153621,-80.261633,WABELLCO,Wabellco Federal Credit Union,Washington,,United States,TRUE,FALSE,FALSE,FALSE,FALSE,FALSE,FALSE,TRUE,FALSE,TRUE,FALSE,FALSE,Member Services;;Drive Thru;,,PA,http://www.wabfcu.org,15301,1277 Park Ave
40.153621,-80.261633,FRICK FINANCIAL,Washington Office,Washington,,United States,FALSE,FALSE,FALSE,FALSE,FALSE,FALSE,FALSE,TRUE,FALSE,TRUE,FALSE,FALSE,Member Services;;Drive Thru;,,PA,http://www.frickfin.org,15301-5949,1245 Park Ave
40.287171,-80.610007,EAGLE CAN EMPLOYEES,Eagle Can Employees FCU,Wellsburg,,United States,TRUE,FALSE,FALSE,FALSE,FALSE,FALSE,FALSE,TRUE,FALSE,FALSE,FALSE,FALSE,Member Services;;;Shared Service Center,,WV,"",26070,2400 Charles St
40.173386,-80.679226,IBEW 141,IBEW 141 FCU,Wheeling,,United States,TRUE,FALSE,FALSE,FALSE,FALSE,FALSE,FALSE,FALSE,FALSE,FALSE,FALSE,FALSE,Member Services;;;,,WV,"",26003,110 Wilkinson Dr
40.173386,-80.679226,IBEW 141,IBEW 141 FCU,Wheeling,,United States,TRUE,FALSE,FALSE,FALSE,FALSE,FALSE,FALSE,FALSE,FALSE,FALSE,FALSE,FALSE,Member Services;;;,,WV,"",26003,110 Wilkinson Dr
39.89835,-80.151769,FRICK FINANCIAL,Waynesburg Office,Waynesburg,,United States,FALSE,FALSE,FALSE,FALSE,FALSE,FALSE,FALSE,TRUE,FALSE,TRUE,FALSE,FALSE,Member Services;;;,,PA,http://www.frickfin.org,15370,222 Elm Dr Unit 3
40.313428,-79.388961,CLEARVIEW,Latrobe,Latrobe,,United States,FALSE,FALSE,TRUE,FALSE,TRUE,FALSE,FALSE,TRUE,TRUE,TRUE,TRUE,FALSE,Member Services;ATM;;Shared Service Center,,PA,http://www.clearviewfcu.org,15650-1713,107 Lloyd Ave
40.321669,-79.393108,PHEPLE,Latrobe Hospital,latrobe,,United States,FALSE,FALSE,FALSE,TRUE,TRUE,TRUE,TRUE,FALSE,FALSE,TRUE,FALSE,TRUE,Member Services;;;,,PA,http://www.pheplefcu.org,15650,121 w 2nd ave
40.280485,-79.374785,LESCO,Greater Latrobe High School Student Branch,Latrobe,,United States,FALSE,FALSE,FALSE,FALSE,FALSE,FALSE,TRUE,TRUE,FALSE,TRUE,FALSE,FALSE,Member Services;ATM;;,,PA,http://www.lescofcu.com,15650-9084,130 High School Rd
40.047422,-80.648495,FIRST CHOICE AMERICA COMMUNITY,Elm Grove Office,Wheeling,,United States,FALSE,FALSE,FALSE,FALSE,TRUE,FALSE,FALSE,TRUE,FALSE,FALSE,FALSE,FALSE,Member Services;ATM;Drive Thru;,,WV,http://www.firstchoiceamericacu.org,26003,1A Elm Grove Crossing Mall
40.058872,-80.684914,FIRST CHOICE AMERICA COMMUNITY,Medical Park Office,Wheeling,,United States,FALSE,FALSE,FALSE,FALSE,TRUE,FALSE,FALSE,TRUE,FALSE,FALSE,FALSE,FALSE,Member Services;ATM;;,,WV,http://www.firstchoiceamericacu.org,26003,1 Medical Park
40.078255,-80.713399,OHIO COUNTY PUBLIC SCHOOLS,OCPS FEDERAL CREDIT UNION,WHEELING,,United States,TRUE,FALSE,FALSE,FALSE,TRUE,FALSE,FALSE,FALSE,FALSE,TRUE,FALSE,FALSE,Member Services;;;,,WV,http://www.ocpsfcu.virtualcu.net,26003,280 FULTON ST
39.658521,-79.986721,THE UNITED,The United Federal Credit Union,Morgantown,,United States,FALSE,FALSE,FALSE,FALSE,FALSE,FALSE,FALSE,TRUE,FALSE,TRUE,FALSE,FALSE,Member Services;ATM;Drive Thru;,,WV,http://www.tufcu.org,26505-3051,3467 University Ave Ste 100
40.061272,-80.72166,FIRST CHOICE AMERICA COMMUNITY,Wheeling Office,Wheeling,,United States,FALSE,FALSE,FALSE,FALSE,TRUE,FALSE,FALSE,TRUE,FALSE,FALSE,FALSE,FALSE,Member Services;ATM;Drive Thru;,,WV,http://www.firstchoiceamericacu.org,26003,1990 Chapline St
40.067576,-80.721286,OHIO VALLEY COMMUNITY,Wheeling Office,Wheeling,,United States,FALSE,FALSE,FALSE,FALSE,TRUE,FALSE,FALSE,TRUE,FALSE,TRUE,FALSE,FALSE,Member Services;ATM;Drive Thru;,,WV,http://www.ohiovalleycu.org,26003-2919,1114 Chapline St
40.072007,-80.723677,TEAMSTERS LOCAL 697,CU Office,Wheeling,,United States,TRUE,FALSE,FALSE,FALSE,TRUE,FALSE,FALSE,TRUE,FALSE,TRUE,FALSE,FALSE,Member Services;;;,,WV,http://teamsters697creditunion.com,26003-2918,901 Market St
39.66148,-79.952957,FAIRMONT,Pineview,Morgantown,,United States,FALSE,FALSE,FALSE,FALSE,FALSE,TRUE,FALSE,TRUE,FALSE,TRUE,FALSE,FALSE,Member Services;ATM;Drive Thru;,,WV,http://www.fairmontfcu.com,26505-2731,1254 Pineview Dr
39.656423,-79.963926,MORGANTOWN A E S,Morgantown AES FCU Main Office,Morgantown,,United States,TRUE,FALSE,FALSE,FALSE,TRUE,FALSE,FALSE,TRUE,FALSE,TRUE,FALSE,FALSE,Member Services;ATM;Drive Thru;,,WV,http://www.aesfcu.com,26505,1133 Van Voorhis Rd
39.64133,-79.996661,PIONEER APPALACHIA,University Town Center - Morgantown,Morgantown,,United States,FALSE,FALSE,FALSE,FALSE,TRUE,FALSE,FALSE,TRUE,FALSE,TRUE,FALSE,FALSE,Member Services;ATM;Drive Thru;Shared Service Center,,WV,http://WWW.pioneerafcu.org,26501,8980 University Town Centre Drive
39.650131,-79.961517,WVU EMPLOYEES,WVU Employees' Federal Credit Union,Morgantown,,United States,TRUE,FALSE,FALSE,FALSE,TRUE,FALSE,FALSE,TRUE,FALSE,TRUE,FALSE,FALSE,Member Services;ATM;Drive Thru;Shared Service Center,,WV,http://www.wvucu.com,26505,448 Harding Ave
39.922058,-80.74284,MARSHALL COUNTY,Marshall County Federal Credit Union,Moundsville,,United States,TRUE,FALSE,FALSE,FALSE,FALSE,FALSE,FALSE,TRUE,FALSE,TRUE,FALSE,FALSE,Member Services;;;,,WV,http://www.marshallcountyfcu.com,26041-1605,910 3rd St
39.625749,-79.991114,FAIRMONT,Westover,Morgantown,,United States,FALSE,FALSE,FALSE,FALSE,FALSE,TRUE,FALSE,TRUE,FALSE,TRUE,FALSE,FALSE,Member Services;ATM;Drive Thru;,,WV,http://www.fairmontfcu.com,26501-2018,12 Lawless Rd
39.923425,-80.750305,BAYER HERITAGE,Moundsville,Moundsville,,United States,FALSE,FALSE,TRUE,FALSE,TRUE,FALSE,FALSE,TRUE,FALSE,TRUE,FALSE,FALSE,Member Services;ATM;Drive Thru;Shared Service Center,,WV,http://bayerhfcu.com,26041,411 Lafayette Ave
39.673272,-79.856899,THE UNITED,The United Federal Credit Union,Morgantown,,United States,TRUE,FALSE,FALSE,FALSE,FALSE,FALSE,FALSE,TRUE,FALSE,TRUE,FALSE,FALSE,Member Services;ATM;Drive Thru;,,WV,http://www.tufcu.org,26508-4431,3 Sunset Beach Rd
39.48692,-80.140252,CITY OF FAIRMONT,City of Fairmont FCU,Fairmont,,United States,TRUE,FALSE,FALSE,FALSE,TRUE,FALSE,FALSE,FALSE,FALSE,FALSE,FALSE,FALSE,Member Services;;;Shared Service Center,,WV,"",26554,500 Quincy ST
39.485914,-80.142246,U S EMPLOYEES,U S POST OFFICE,Fairmont,,United States,TRUE,FALSE,FALSE,FALSE,FALSE,FALSE,FALSE,FALSE,FALSE,FALSE,FALSE,FALSE,Member Services;;;,,WV,"",26554-3124,331 Madison St
39.467214,-80.129194,FAIRMONT,Gateway Connector Office,Fairmont,,United States,TRUE,FALSE,FALSE,FALSE,FALSE,TRUE,FALSE,TRUE,FALSE,TRUE,FALSE,FALSE,Member Services;ATM;Drive Thru;,,WV,http://www.fairmontfcu.com,26554-1567,2 The Credit Union Way
39.4684,-80.1437,FAIRMONT,Bellview,Fairmont,,United States,FALSE,FALSE,FALSE,FALSE,FALSE,TRUE,FALSE,TRUE,FALSE,TRUE,FALSE,FALSE,;ATM;Drive Thru;,,WV,http://www.fairmontfcu.com,26554,652 Pennsylvania Ave
39.469398,-80.154509,FAIRMONT,12th St Drive Thru,Fairmont,,United States,FALSE,FALSE,FALSE,FALSE,FALSE,TRUE,FALSE,TRUE,FALSE,TRUE,FALSE,FALSE,;ATM;Drive Thru;,,WV,http://www.fairmontfcu.com,26554,1201 Beverly Rd
39.464024,-80.164072,MARION COUNTY SCHOOL EMPLOYEES,Main Office,Fairmont,,United States,TRUE,FALSE,FALSE,FALSE,FALSE,FALSE,FALSE,TRUE,FALSE,TRUE,TRUE,FALSE,Member Services;;;,,WV,http://www.schoolcu.virtualcu.net,26554,1512 Mary Lou Retton Dr
39.520065,-80.322189,FAIRMONT,Mannington,Mannington,,United States,FALSE,FALSE,FALSE,FALSE,FALSE,TRUE,FALSE,TRUE,FALSE,TRUE,FALSE,FALSE,Member Services;ATM;Drive Thru;,,WV,http://www.fairmontfcu.com,26582-7154,5160 Husky Hwy
39.472239,-79.690345,WEPCO,Kingwood Loan Production Office,Kingwood,,United States,FALSE,FALSE,FALSE,FALSE,FALSE,FALSE,FALSE,TRUE,FALSE,TRUE,FALSE,FALSE,Member Services;ATM;;,,WV,http://www.wepcofcu.com,26537-1419,202 W Main St
39.428466,-80.187269,FAIRMONT,White Hall,Fairmont,,United States,FALSE,FALSE,FALSE,FALSE,FALSE,TRUE,FALSE,TRUE,FALSE,TRUE,FALSE,FALSE,Member Services;ATM;Drive Thru;,,WV,http://www.fairmontfcu.com,26554,9912 Mall Loop
39.46766,-79.669922,PRESTON,KINGWOOD,KINGWOOD,,United States,TRUE,FALSE,FALSE,FALSE,FALSE,FALSE,FALSE,TRUE,FALSE,TRUE,FALSE,FALSE,Member Services;ATM;Drive Thru;,,WV,https://www.prestonfcu.com,26537-1722,434 E MAIN ST
39.348944,-80.00926,CHESSIE,Grafton,Grafton,,United States,FALSE,FALSE,FALSE,FALSE,FALSE,FALSE,FALSE,TRUE,FALSE,TRUE,FALSE,FALSE,Member Services;;Drive Thru;,,WV,http://www.chessiefcu.org,26354,400 N Pike St
39.33756,-80.230991,HOPE,Hope Federal Credit Union,Bridgeport,,United States,TRUE,FALSE,FALSE,FALSE,TRUE,FALSE,FALSE,TRUE,FALSE,TRUE,FALSE,FALSE,Member Services;;;,,WV,http://www.hopefcu.com,26330,925 White Oaks Blvd.
39.333153,-80.238037,JUSTICE,West Virginia White Oaks Br #26,Bridgeport,,United States,FALSE,FALSE,FALSE,TRUE,TRUE,TRUE,FALSE,TRUE,FALSE,TRUE,FALSE,FALSE,Member Services;ATM;Drive Thru;,,WV,http://www.jfcu.org,26330-4648,180 White Oaks Blvd
39.333153,-80.238037,JUSTICE,Br # 15 West Virginia Call Center,Bridgeport,,United States,FALSE,FALSE,FALSE,TRUE,TRUE,TRUE,FALSE,TRUE,FALSE,TRUE,FALSE,FALSE,Member Services;;;,,WV,http://www.jfcu.org,26330,180 White Oaks Blvd
39.32835,-80.239609,UNITED HOSPITAL CENTER,UNITED HOSPITAL CENTER FEDERAL CREDIT UNION,Bridgeport,,United States,TRUE,FALSE,FALSE,FALSE,FALSE,FALSE,FALSE,TRUE,FALSE,TRUE,TRUE,TRUE,Member Services;ATM;;,,WV,http://www.uhcfcu.virtualcu.net,26330-9006,327 Medical Park Dr Room 301
39.31697,-80.223773,FAIRMONT,Charles Pointe,Bridgeport,,United States,FALSE,FALSE,FALSE,FALSE,FALSE,TRUE,FALSE,TRUE,FALSE,TRUE,FALSE,FALSE,Member Services;ATM;Drive Thru;,,WV,http://www.fairmontfcu.com,26330,680 Genesis Blvd
39.325875,-80.268166,JUSTICE,West Virginia Branch #7,Clarksburg,,United States,FALSE,FALSE,FALSE,TRUE,TRUE,TRUE,FALSE,TRUE,FALSE,TRUE,FALSE,FALSE,Member Services;;;,,WV,http://www.jfcu.org,26306-0001,1000 Custer Hollow Dr Room 408 C1
39.629436,-79.319661,FIRST PEOPLES COMMUNITY,Accident,Accident,,United States,FALSE,FALSE,FALSE,FALSE,TRUE,TRUE,FALSE,TRUE,FALSE,TRUE,FALSE,FALSE,Member Services;ATM;;,,MD,http://www.firstpeoples.com,21520,106 N Main St
39.279429,-80.32884,CAPE,Main Office,Clarksburg,,United States,TRUE,FALSE,FALSE,FALSE,TRUE,FALSE,FALSE,TRUE,FALSE,TRUE,FALSE,FALSE,Member Services;ATM;Drive Thru;,,WV,http://www.capecu.com,26301,323 E Pike St
39.2796,-80.336899,HOME,Home Federal Credit Union,Clarksburg,,United States,TRUE,FALSE,FALSE,TRUE,FALSE,FALSE,FALSE,TRUE,FALSE,TRUE,FALSE,FALSE,Member Services;ATM;Drive Thru;,,WV,https://www.homefcu.org,26301,131 W Pike St
39.280495,-80.340371,CITY OF CLARKSBURG,CITY OF CLARKSBURG FEDERAL CREDIT UNION,CLARKSBURG,,United States,TRUE,FALSE,FALSE,FALSE,TRUE,FALSE,FALSE,FALSE,FALSE,FALSE,FALSE,FALSE,Member Services;;Drive Thru;Shared Service Center,,WV,"",26301,101 S 4TH ST
39.265769,-80.327624,HARRISON COUNTY,Harrison County FCU,Nutter Fort,,United States,TRUE,FALSE,FALSE,FALSE,TRUE,FALSE,FALSE,FALSE,FALSE,TRUE,FALSE,FALSE,Member Services;;Drive Thru;,,WV,http://www.harrisoncountyfcu.net,26301,315 Buckhannon Pike
39.419752,-79.399674,FIRST PEOPLES COMMUNITY,Oakland,Oakland,,United States,FALSE,FALSE,FALSE,FALSE,TRUE,TRUE,FALSE,TRUE,FALSE,TRUE,FALSE,FALSE,Member Services;ATM;Drive Thru;,,MD,http://www.firstpeoples.com,21550-1159,12599 Garrett Hwy
39.422979,-79.396372,WEPCO,Oakland Branch,Oakland,,United States,FALSE,FALSE,FALSE,FALSE,FALSE,FALSE,FALSE,TRUE,FALSE,TRUE,FALSE,FALSE,Member Services;ATM;;,,MD,http://www.wepcofcu.com,21550,12826 Garrett Hwy
39.411714,-79.403697,WEPCO,Oakland Drive-Thru,Oakland,,United States,FALSE,FALSE,FALSE,FALSE,FALSE,FALSE,FALSE,TRUE,FALSE,TRUE,FALSE,FALSE,;;Drive Thru;,,MD,http://www.wepcofcu.com,21550,130 N 4th St
39.263168,-80.371854,FAIRMONT,Rose Bud,Clarksburg,,United States,FALSE,FALSE,FALSE,FALSE,FALSE,TRUE,FALSE,TRUE,FALSE,TRUE,FALSE,FALSE,Member Services;ATM;Drive Thru;,,WV,http://www.fairmontfcu.com,26301-9386,600 Rosebud Plz
39.74834,-80.84814,NATRIUM EMPLOYEES,Main Office,Proctor,,United States,TRUE,FALSE,FALSE,FALSE,FALSE,FALSE,FALSE,FALSE,FALSE,TRUE,FALSE,FALSE,Member Services;;;,,WV,http://www.natriumefcu.com,26055-1302,15710 Energy Rd
39.683224,-80.857501,BAYER HERITAGE,Main,New Martinsville,,United States,TRUE,FALSE,TRUE,FALSE,TRUE,FALSE,FALSE,TRUE,FALSE,TRUE,FALSE,FALSE,Member Services;ATM;Drive Thru;Shared Service Center,,WV,http://bayerhfcu.com,26155,788 N State Route 2
39.665251,-80.858668,BAYER HERITAGE,New Martinsville,New Martinsville,,United States,FALSE,FALSE,TRUE,FALSE,TRUE,FALSE,FALSE,TRUE,FALSE,TRUE,FALSE,FALSE,Member Services;;Drive Thru;Shared Service Center,,WV,http://bayerhfcu.com,26155,178 N State Route 2
39.49492,-80.9023,LONG REACH,Middlebourne,Middlebourne,,United States,TRUE,FALSE,FALSE,FALSE,TRUE,FALSE,FALSE,TRUE,FALSE,TRUE,FALSE,FALSE,Member Services;ATM;Drive Thru;Shared Service Center,,WV,http://www.lrefcu.org,26149-9602,315 Main St
39.48595,-81.093262,LONG REACH,Friendly,Friendly,,United States,FALSE,FALSE,FALSE,FALSE,TRUE,FALSE,FALSE,TRUE,FALSE,TRUE,FALSE,FALSE,Member Services;ATM;Drive Thru;Shared Service Center,,WV,http://www.lrefcu.org,26146-7512,10767 Energy Hwy
40.297368,-79.365405,DERRY AREA,Latrobe Branch,Latrobe,,United States,FALSE,FALSE,FALSE,FALSE,TRUE,FALSE,FALSE,FALSE,FALSE,TRUE,FALSE,FALSE,Member Services;;;,,PA,http://www.dafcu.com,15650,2906 Ligonier St Ste 16
40.302892,-79.373282,LESCO,Lesco Federal Credit Union,Latrobe,,United States,TRUE,FALSE,FALSE,FALSE,FALSE,FALSE,TRUE,TRUE,FALSE,TRUE,FALSE,FALSE,Member Services;ATM;Drive Thru;,,PA,http://www.lescofcu.com,15650,2613 Ligonier St
40.309765,-79.377295,LATROBE,Latrobe FCU,Latrobe,,United States,TRUE,FALSE,FALSE,FALSE,FALSE,FALSE,FALSE,FALSE,FALSE,TRUE,TRUE,FALSE,Member Services;;;,,PA,http://www.latrobefcu.com,15650-2917,1812 Ligonier St
40.313651,-79.374849,FORT LIGONIER,Secondary Office,Latrobe,,United States,FALSE,FALSE,FALSE,FALSE,TRUE,FALSE,FALSE,FALSE,FALSE,FALSE,FALSE,FALSE,Member Services;;;,,PA,http://www.fortligonierfcu.com,15650-2049,732 Lehmer St
39.695051,-79.103741,FIRST PEOPLES COMMUNITY,Grantsville,GRANTSVILLE,,United States,FALSE,FALSE,FALSE,FALSE,TRUE,TRUE,FALSE,TRUE,FALSE,TRUE,FALSE,FALSE,Member Services;ATM;Drive Thru;,,MD,http://www.firstpeoples.com,21536,12497 NATIONAL PIKE
39.803604,-79.031684,FIRST PEOPLES COMMUNITY,Meyersdale,MEYERSDALE,,United States,FALSE,FALSE,FALSE,FALSE,TRUE,TRUE,FALSE,TRUE,FALSE,TRUE,FALSE,FALSE,Member Services;ATM;Drive Thru;,,PA,http://www.firstpeoples.com,15552-6929,7026 MASON DIXON HWY
39.659282,-78.927599,CHESSIE,Frostburg ATM,Frostburg,,United States,FALSE,FALSE,FALSE,FALSE,FALSE,FALSE,FALSE,TRUE,FALSE,TRUE,FALSE,FALSE,;ATM;;,,MD,http://www.chessiefcu.org,21532-1242,48 Tarn Ter
39.566668,-78.980275,FIRST PEOPLES COMMUNITY,Lonaconing,LONACONING,,United States,FALSE,FALSE,FALSE,FALSE,TRUE,TRUE,FALSE,TRUE,FALSE,TRUE,FALSE,FALSE,Member Services;ATM;Drive Thru;,,MD,http://www.firstpeoples.com,21539-1122,29 MAIN ST
40.022384,-79.081469,USSCO JOHNSTOWN,Somerset,Somerset,,United States,FALSE,FALSE,FALSE,FALSE,FALSE,FALSE,FALSE,TRUE,FALSE,TRUE,FALSE,FALSE,Member Services;ATM;Drive Thru;,,PA,http://www.usscofcu.org,15501,180 Beacon St
39.476223,-79.073356,WEPCO,Bloomington Branch,Bloomington,,United States,TRUE,FALSE,FALSE,FALSE,FALSE,FALSE,FALSE,TRUE,FALSE,TRUE,FALSE,FALSE,Member Services;ATM;Drive Thru;,,MD,http://www.wepcofcu.com,21523,204 North Branch Avenue
39.649865,-78.909101,FIRST PEOPLES COMMUNITY,Frostburg,FROSTBURG,,United States,FALSE,FALSE,FALSE,FALSE,TRUE,TRUE,FALSE,TRUE,FALSE,TRUE,FALSE,FALSE,Member Services;ATM;Drive Thru;,,MD,http://www.firstpeoples.com,21532-3467,17610 OLD NATIONAL PIKE SW
39.64585,-78.910399,CHESSIE,Frostburg,Frostburg,,United States,FALSE,FALSE,FALSE,FALSE,FALSE,FALSE,FALSE,TRUE,FALSE,TRUE,FALSE,FALSE,Member Services;ATM;Drive Thru;,,MD,http://www.chessiefcu.org,21532-1328,100 Bishop Murphy Dr
39.920927,-78.948495,FIRST PEOPLES COMMUNITY,Berlin,Berlin,,United States,FALSE,FALSE,FALSE,FALSE,TRUE,TRUE,FALSE,TRUE,FALSE,TRUE,FALSE,FALSE,Member Services;ATM;Drive Thru;,,PA,http://www.firstpeoples.com,15530-1427,1026 Main St
40.033978,-79.074837,FIRST PEOPLES COMMUNITY,Somerset,Somerset,,United States,FALSE,FALSE,FALSE,FALSE,TRUE,TRUE,FALSE,TRUE,FALSE,TRUE,FALSE,FALSE,Member Services;ATM;Drive Thru;,,PA,http://www.firstpeoples.com,15501,1514 N Center Ave
39.637893,-78.853747,ACT 1ST,ACT 1st Federal Credit Union,LaVale,,United States,TRUE,FALSE,FALSE,FALSE,TRUE,TRUE,FALSE,TRUE,FALSE,TRUE,FALSE,FALSE,Member Services;ATM;Drive Thru;,,MD,https://www.act1stfcu.org,21502,14316 National Hwy SW
39.636902,-78.846856,CHESSIE,LaVale Office,LaVale,,United States,FALSE,FALSE,FALSE,FALSE,FALSE,FALSE,FALSE,TRUE,FALSE,TRUE,FALSE,FALSE,Member Services;ATM;Drive Thru;,,MD,http://www.chessiefcu.org,21502,1308 National Hwy
39.636902,-78.846856,FIRST PEOPLES COMMUNITY,National Highway,Lavale,,United States,FALSE,FALSE,FALSE,FALSE,TRUE,TRUE,FALSE,TRUE,FALSE,TRUE,FALSE,FALSE,Member Services;ATM;Drive Thru;,,MD,http://www.firstpeoples.com,21502-7605,1310 National Hwy
39.625158,-78.841412,WEPCO,Wepco - LaVale Branch,LaVale,,United States,FALSE,FALSE,FALSE,FALSE,FALSE,FALSE,FALSE,TRUE,FALSE,TRUE,FALSE,FALSE,Member Services;ATM;Drive Thru;,,MD,http://www.wepcofcu.com,21502,12511 Winchester Rd SW
39.629217,-78.837404,"STATE EMPLOYEES CU OF MARYLAND, INC",SECU Credit Union - LaVale,LaVale,,United States,FALSE,FALSE,FALSE,FALSE,TRUE,TRUE,FALSE,FALSE,FALSE,TRUE,FALSE,FALSE,Member Services;;Drive Thru;,,MD,http://WWW.SECUMD.ORG,21502-6571,12200 Winchester Rd SW
39.581099,-78.84711,CHESSIE,Bel-Air ATM,Cumberland,,United States,FALSE,FALSE,FALSE,FALSE,FALSE,FALSE,FALSE,TRUE,FALSE,TRUE,FALSE,FALSE,;ATM;;,,MD,http://www.chessiefcu.org,21502,15609 McMullen Hwy SW
39.426419,-78.992839,CHESSIE,Keyser,Keyser,,United States,FALSE,FALSE,FALSE,FALSE,FALSE,FALSE,FALSE,TRUE,FALSE,TRUE,FALSE,FALSE,Member Services;ATM;Drive Thru;,,WV,http://www.chessiefcu.org,26726,1015 Florida Ave
39.585751,-78.840975,FIRST PEOPLES COMMUNITY,Cresaptown,CRESAPTOWN,,United States,FALSE,FALSE,FALSE,FALSE,TRUE,TRUE,FALSE,TRUE,FALSE,TRUE,FALSE,FALSE,Member Services;ATM;Drive Thru;,,MD,http://www.firstpeoples.com,21502-5618,15304 MCMULLEN HWY SW
39.422459,-78.995804,WEPCO,Keyser Branch,Keyser,,United States,FALSE,FALSE,FALSE,FALSE,FALSE,FALSE,FALSE,TRUE,FALSE,TRUE,FALSE,FALSE,Member Services;ATM;Drive Thru;,,WV,http://www.wepcofcu.com,26726-9537,459 New Creek Hwy
39.398391,-79.01152,FIRST PEOPLES COMMUNITY,Keyser,Keyser,,United States,FALSE,FALSE,FALSE,FALSE,TRUE,TRUE,FALSE,TRUE,FALSE,TRUE,FALSE,FALSE,Member Services;ATM;Drive Thru;,,WV,http://www.firstpeoples.com,26726,71 Plaza Dr
39.650523,-78.771545,CHESSIE,Greene Street,Cumberland,,United States,FALSE,FALSE,FALSE,FALSE,FALSE,FALSE,FALSE,TRUE,FALSE,TRUE,FALSE,FALSE,Member Services;ATM;Drive Thru;,,MD,http://www.chessiefcu.org,21502-2871,321 Greene St
39.656335,-78.768027,FIRST PEOPLES COMMUNITY,Mechanic Street,Cumberland,,United States,FALSE,FALSE,FALSE,FALSE,TRUE,TRUE,FALSE,TRUE,FALSE,TRUE,FALSE,FALSE,Member Services;ATM;Drive Thru;,,MD,http://www.firstpeoples.com,21502-2212,417 N Mechanic St
39.64918,-78.76901,WEPCO,Paca Branch,Cumberland,,United States,FALSE,FALSE,FALSE,FALSE,FALSE,FALSE,FALSE,TRUE,FALSE,TRUE,FALSE,FALSE,Member Services;ATM;;,,MD,http://www.wepcofcu.com,21502-2814,215 Paca St
39.579243,-78.788582,FIRST PEOPLES COMMUNITY,Short Gap,Ridgeley,,United States,FALSE,FALSE,FALSE,FALSE,TRUE,TRUE,FALSE,TRUE,FALSE,TRUE,FALSE,FALSE,Member Services;ATM;Drive Thru;,,WV,http://www.firstpeoples.com,26753-8707,3116 Frankfort Hwy
39.65171,-78.759873,FIRST PEOPLES COMMUNITY,Downtown,CUMBERLAND,,United States,TRUE,FALSE,FALSE,FALSE,TRUE,TRUE,FALSE,TRUE,FALSE,TRUE,FALSE,FALSE,Member Services;ATM;Drive Thru;Shared Service Center,,MD,http://www.firstpeoples.com,21502,153 BALTIMORE ST
39.6518607,-78.759811,FIRST PEOPLES COMMUNITY,Queen City Drive,CUMBERLAND,,United States,FALSE,FALSE,FALSE,FALSE,TRUE,TRUE,FALSE,TRUE,FALSE,TRUE,FALSE,FALSE,;ATM;Drive Thru;,,MD,http://www.firstpeoples.com,21502,54 QUEEN CITY DR
39.651267,-78.759971,CHESSIE,Drive Thru,Cumberland,,United States,FALSE,FALSE,FALSE,FALSE,FALSE,FALSE,FALSE,TRUE,FALSE,TRUE,FALSE,FALSE,;ATM;Drive Thru;,,MD,http://www.chessiefcu.org,21502,122 W Union St
39.632011,-78.765404,CHESSIE,CSX ATM,Cumberland,,United States,FALSE,FALSE,FALSE,FALSE,FALSE,FALSE,FALSE,TRUE,FALSE,TRUE,FALSE,FALSE,;ATM;;,,MD,http://www.chessiefcu.org,21502-4514,722 Virginia Ave
39.628567,-78.766538,CHESSIE,CSX ATM #2,Cumberland,,United States,FALSE,FALSE,FALSE,FALSE,FALSE,FALSE,FALSE,TRUE,FALSE,TRUE,FALSE,FALSE,;ATM;;,,MD,http://www.chessiefcu.org,21502-4727,15 E Offutt St
39.679301,-78.737192,CHESSIE,Commerce Drive,Cumberland,,United States,TRUE,FALSE,FALSE,FALSE,FALSE,FALSE,FALSE,TRUE,FALSE,TRUE,FALSE,FALSE,Member Services;ATM;Drive Thru;,,MD,http://www.chessiefcu.org,21502,15 Commerce Dr
39.636112,-78.747697,WEPCO,Oldtown Rd Branch,Cumberland,,United States,FALSE,FALSE,FALSE,FALSE,FALSE,FALSE,FALSE,TRUE,FALSE,TRUE,FALSE,FALSE,Member Services;ATM;Drive Thru;,,MD,http://www.wepcofcu.com,21502-4039,1101 E Oldtown Rd
39.404894,-78.91797,FIRST PEOPLES COMMUNITY,ABL Branch,Rocket Center,,United States,FALSE,FALSE,FALSE,FALSE,TRUE,TRUE,FALSE,TRUE,FALSE,TRUE,FALSE,FALSE,;ATM;;,,WV,http://www.firstpeoples.com,26726,210 State Route 956 Bldg 600
39.651903,-78.736579,ACT 1ST,Allegany College of Maryland,Cumberland,,United States,FALSE,FALSE,FALSE,FALSE,TRUE,TRUE,FALSE,TRUE,FALSE,TRUE,FALSE,FALSE,;ATM;;,,MD,https://www.act1stfcu.org,21502-2559,12401 Willowbrook Rd
39.632476,-78.736057,ACT 1ST,ACT 1st Federal Credit Union,Cumberland,,United States,FALSE,FALSE,FALSE,FALSE,TRUE,TRUE,FALSE,TRUE,FALSE,TRUE,FALSE,FALSE,Member Services;ATM;Drive Thru;,,MD,https://www.act1stfcu.org,21502,11905 Messick Rd SE
39.632476,-78.736057,ACT 1ST,ACT 1st Federal Credit Union,Cumberland,,United States,FALSE,FALSE,FALSE,FALSE,TRUE,TRUE,FALSE,TRUE,FALSE,TRUE,FALSE,FALSE,Member Services;ATM;Drive Thru;,,MD,https://www.act1stfcu.org,21502-8714,11905 Messick Rd SE
39.648151,-78.730751,CHESSIE,WMHS,Cumberland,,United States,FALSE,FALSE,FALSE,FALSE,FALSE,FALSE,FALSE,TRUE,FALSE,TRUE,FALSE,FALSE,Member Services;ATM;;,,MD,http://www.chessiefcu.org,21502,12501 Willowbrook Rd
39.624914,-78.735399,FIRST PEOPLES COMMUNITY,Industrial Boulevard,Cumberland,,United States,FALSE,FALSE,FALSE,FALSE,TRUE,TRUE,FALSE,TRUE,FALSE,TRUE,FALSE,FALSE,Member Services;ATM;Drive Thru;,,MD,http://www.firstpeoples.com,21502,12505 Evitts Creek Dr SE
40.20768,-78.991191,FORT LIGONIER,Main Office,Jerome,,United States,TRUE,FALSE,FALSE,FALSE,TRUE,FALSE,FALSE,FALSE,FALSE,FALSE,FALSE,FALSE,Member Services;;;,,PA,http://www.fortligonierfcu.com,15937,1917 Penn Avenue
40.315991,-79.349243,DERTOWN SCHOOL,Dertown,Latrobe,,United States,TRUE,FALSE,FALSE,FALSE,FALSE,FALSE,FALSE,FALSE,FALSE,FALSE,FALSE,FALSE,Member Services;;;,,PA,"",15650-3404,5012 State Route 982 APT 3
40.319537,-79.382304,VASCO,Main Office,Latrobe,,United States,TRUE,FALSE,FALSE,FALSE,FALSE,FALSE,FALSE,TRUE,FALSE,TRUE,FALSE,FALSE,Member Services;ATM;Drive Thru;,,PA,http://www.vascofcu.com,15650,432 Depot St
40.333857,-79.299621,DERRY AREA,Main Office,Derry,,United States,TRUE,FALSE,FALSE,FALSE,TRUE,FALSE,FALSE,FALSE,FALSE,TRUE,FALSE,FALSE,Member Services;;Drive Thru;,,PA,http://www.dafcu.com,15627-1926,160 E 1st Ave
39.34281,-78.763458,ACT 1ST,Romney,Romney,,United States,FALSE,FALSE,FALSE,FALSE,TRUE,TRUE,FALSE,TRUE,FALSE,TRUE,FALSE,FALSE,Member Services;ATM;Drive Thru;,,WV,https://www.act1stfcu.org,26757-1532,555 W Main St
39.34281,-78.763458,ACT 1ST,ACT 1st Federal Credit Union,Romney,,United States,FALSE,FALSE,FALSE,FALSE,TRUE,TRUE,FALSE,TRUE,FALSE,TRUE,FALSE,FALSE,Member Services;ATM;Drive Thru;,,WV,https://www.act1stfcu.org,26757-1532,555 W Main St
40.251925,-78.907666,HEALTHCARE FIRST CREDIT UNION,Davidsville - Laurel View Village,Davidsville,,United States,FALSE,FALSE,FALSE,FALSE,FALSE,FALSE,FALSE,TRUE,FALSE,TRUE,FALSE,FALSE,Member Services;ATM;;,,PA,http://www.healthcarefirstcu.com,15928-9220,2000 Cambridge Dr
39.342021,-78.75694,ROMNEY,Romney Federal Credit Union,Romney,,United States,TRUE,FALSE,FALSE,TRUE,TRUE,FALSE,FALSE,FALSE,FALSE,TRUE,FALSE,FALSE,Member Services;;;,,WV,http://www.romneyfcu.com,26757-1638,62 W Main St
40.316553,-78.963089,JOHNSTOWN SCHOOL EMPLOYEES,Main,Johnstown,,United States,TRUE,FALSE,FALSE,FALSE,FALSE,FALSE,FALSE,FALSE,FALSE,FALSE,FALSE,FALSE,Member Services;;;,,PA,http://jsefcu.com,15905,738 Viewmont Ave
40.308097,-78.941215,PRR SOUTH FORK,Southmont Office,Johnstown,,United States,FALSE,FALSE,FALSE,FALSE,FALSE,FALSE,FALSE,FALSE,FALSE,TRUE,FALSE,FALSE,Member Services;;;,,PA,http://www.prrsouthfork.com,15905,307 State St
40.303556,-78.9218,HEALTHCARE FIRST CREDIT UNION,Franklin St Office,Johnstown,,United States,TRUE,FALSE,FALSE,FALSE,FALSE,FALSE,FALSE,TRUE,FALSE,TRUE,FALSE,FALSE,Member Services;ATM;Drive Thru;,,PA,http://www.healthcarefirstcu.com,15905-4310,1152 Franklin St
40.297661,-78.912624,USSCO JOHNSTOWN,Moxham,Johnstown,,United States,FALSE,FALSE,FALSE,FALSE,FALSE,FALSE,FALSE,TRUE,FALSE,TRUE,FALSE,FALSE,Member Services;ATM;Drive Thru;,,PA,http://www.usscofcu.org,15902,522 Central Ave
40.30587,-78.915855,MERHO,MERHO Federal Credit Union,Johnstown,,United States,TRUE,FALSE,FALSE,FALSE,TRUE,FALSE,FALSE,TRUE,FALSE,TRUE,FALSE,FALSE,Member Services;;Drive Thru;,,PA,http://www.merhofcu.org,15905-4124,15 Irene St
40.323367,-78.917765,FRANKLIN JOHNSTOWN,Downtown Office,Johnstown,,United States,FALSE,FALSE,FALSE,FALSE,FALSE,FALSE,FALSE,TRUE,FALSE,FALSE,FALSE,FALSE,Member Services;ATM;;,,PA,http://www.franklinjohnstown.com,15901-2013,544 Vine St
40.325769,-78.916359,G.A.P.,Downtown,Johnstown,,United States,TRUE,FALSE,FALSE,FALSE,TRUE,FALSE,TRUE,TRUE,FALSE,TRUE,TRUE,FALSE,Member Services;;;,,PA,http://www.gapfcu.org,15901,111 Franklin St Rm 224
40.270933,-78.84578,FRANKLIN JOHNSTOWN,Richland Office,Johnstown,,United States,TRUE,FALSE,FALSE,FALSE,FALSE,FALSE,FALSE,TRUE,FALSE,FALSE,FALSE,FALSE,Member Services;ATM;Drive Thru;,,PA,http://www.franklinjohnstown.com,15904-3202,310 Bloomfield St
40.284485,-78.84004,G.A.P.,Richland,Johnstown,,United States,FALSE,FALSE,FALSE,FALSE,TRUE,FALSE,TRUE,TRUE,FALSE,TRUE,TRUE,FALSE,Member Services;;Drive Thru;,,PA,http://www.gapfcu.org,15904-2840,194 Donald Ln Ste 3
40.284485,-78.84004,C-B-W SCHOOLS,Credit Union Complex,Johnstown,,United States,FALSE,FALSE,FALSE,FALSE,FALSE,FALSE,FALSE,TRUE,FALSE,TRUE,FALSE,FALSE,Member Services;;Drive Thru;,,PA,http://www.cbwsfcu.org,15904-2840,194 Donald Ln Ste 4
40.284485,-78.84004,MERHO,MERHO Federal Credit Union,Johnstown,,United States,FALSE,FALSE,FALSE,FALSE,TRUE,FALSE,FALSE,TRUE,FALSE,TRUE,FALSE,FALSE,Member Services;;Drive Thru;,,PA,http://www.merhofcu.org,15904-2840,194 Donald Ln Ste 2
40.284485,-78.84004,HEALTHCARE FIRST CREDIT UNION,Richland Office,Johnstown,,United States,FALSE,FALSE,FALSE,FALSE,FALSE,FALSE,FALSE,TRUE,FALSE,TRUE,FALSE,FALSE,Member Services;ATM;Drive Thru;,,PA,http://www.healthcarefirstcu.com,15904-2840,194 Donald Ln
40.291224,-78.836732,USSCO JOHNSTOWN,Richland,Johnstown,,United States,TRUE,FALSE,FALSE,FALSE,FALSE,FALSE,FALSE,TRUE,FALSE,TRUE,FALSE,FALSE,Member Services;ATM;Drive Thru;,,PA,http://www.usscofcu.org,15904,532 Oakridge Dr
40.358434,-78.887964,G.A.P.,Bird Cage Branch,Johnstown,,United States,FALSE,FALSE,FALSE,FALSE,TRUE,FALSE,TRUE,TRUE,FALSE,TRUE,TRUE,FALSE,Member Services;;;,,PA,http://www.gapfcu.org,15906,1342 William Penn Ave
40.333,-78.7544,G.A.P.,Forest Hills High School,Sidman,,United States,FALSE,FALSE,FALSE,FALSE,TRUE,FALSE,TRUE,TRUE,FALSE,TRUE,TRUE,FALSE,Member Services;;;,,PA,http://www.gapfcu.org,15955,535 Locust Street
40.329731,-78.747601,C-B-W SCHOOLS,C-B-W Schools Federal Credit Union,Sidman,,United States,TRUE,FALSE,FALSE,FALSE,FALSE,FALSE,FALSE,TRUE,FALSE,TRUE,FALSE,FALSE,Member Services;;;,,PA,http://www.cbwsfcu.org,15955-0400,PO Box 400 460 Locust Street
40.36584,-78.792096,PRR SOUTH FORK,Main Office,South Fork,,United States,TRUE,FALSE,FALSE,FALSE,FALSE,FALSE,FALSE,FALSE,FALSE,TRUE,FALSE,FALSE,Member Services;;Drive Thru;,,PA,http://www.prrsouthfork.com,15956,220 Main St
40.032848,-78.486618,KENNAFORD,Kennaford,Bedford,,United States,TRUE,FALSE,FALSE,FALSE,FALSE,FALSE,FALSE,FALSE,FALSE,FALSE,FALSE,FALSE,Member Services;;;,,PA,"",15522,442 Chalybeate Rd
40.024452,-78.448608,FIRST PEOPLES COMMUNITY,Bedford Plaza,Everett,,United States,FALSE,FALSE,FALSE,FALSE,TRUE,TRUE,FALSE,TRUE,FALSE,TRUE,FALSE,FALSE,Member Services;ATM;Drive Thru;,,PA,http://www.firstpeoples.com,15537,30 Bedford Sq Route 30
40.46591,-78.756521,USSCO JOHNSTOWN,Ebensburg,Ebensburg,,United States,FALSE,FALSE,FALSE,FALSE,FALSE,FALSE,FALSE,TRUE,FALSE,TRUE,FALSE,FALSE,Member Services;ATM;;,,PA,http://www.usscofcu.org,15931,169 Mini Mall Rd Suite 110
40.334241,-78.390694,MORRISONS COVE 1ST,Morrisons Cove 1st FCU,Roaring Spring,,United States,TRUE,FALSE,FALSE,FALSE,FALSE,FALSE,FALSE,TRUE,FALSE,TRUE,FALSE,FALSE,Member Services;ATM;Drive Thru;,,PA,http://www.mcove1stfcu.com,16673,7533 Woodbury Pike
40.305074,-78.332216,HEALTHCARE FIRST CREDIT UNION,Martinsburg office,Martinsburg,,United States,FALSE,FALSE,FALSE,FALSE,FALSE,FALSE,FALSE,TRUE,FALSE,TRUE,FALSE,FALSE,Member Services;;;,,PA,http://www.healthcarefirstcu.com,16662,437 Givler Dr
40.42492,-78.440916,S. T. P. EMPLOYEES,Credit Union Office,Duncansville,,United States,TRUE,FALSE,FALSE,FALSE,FALSE,FALSE,FALSE,FALSE,FALSE,FALSE,FALSE,FALSE,Member Services;;;,,PA,http://www.smalltubeproducts.com,16635-1017,PO Box 1017 200 Oliphant Drive
40.427044,-78.42158,A.B.,Main Office,Duncansville,,United States,TRUE,FALSE,FALSE,TRUE,TRUE,FALSE,FALSE,FALSE,FALSE,TRUE,TRUE,FALSE,;;Drive Thru;,,PA,http://www.abfederalcu.com,16635-1414,520 3rd Ave
40.451374,-78.431073,HEALTHCARE FIRST CREDIT UNION,Altoona Main Office,Duncansville,,United States,FALSE,FALSE,FALSE,FALSE,FALSE,FALSE,FALSE,TRUE,FALSE,TRUE,FALSE,FALSE,Member Services;ATM;Drive Thru;,,PA,http://www.healthcarefirstcu.com,16635,2786 Route 764
40.465904,-78.395605,YOUR CHOICE,Main Office,Altoona,,United States,TRUE,FALSE,FALSE,FALSE,TRUE,FALSE,FALSE,TRUE,FALSE,TRUE,TRUE,FALSE,Member Services;;;,,PA,http://www.yourchoicefcu.com,16602,109 Keystone St
40.488444,-78.398678,G.A.P.,Altoona VA Hospital,Altoona,,United States,FALSE,FALSE,FALSE,FALSE,TRUE,FALSE,TRUE,TRUE,FALSE,TRUE,TRUE,FALSE,Member Services;ATM;;,,PA,http://www.gapfcu.org,16602,2907 Pleasant Valley Blvd Rm 9
40.49547,-78.411077,BLAIR COUNTY,Blair County Federal Credit Union,Altoona,,United States,TRUE,FALSE,FALSE,FALSE,FALSE,FALSE,FALSE,TRUE,FALSE,TRUE,FALSE,FALSE,Member Services;ATM;Drive Thru;,,PA,http://www.blairctyfcu.org,16602-1918,3001 6th Ave
40.49547,-78.411077,AMERICAN PRIDE,Blair County Federal Credit Union,Altoona,,United States,FALSE,FALSE,FALSE,FALSE,TRUE,TRUE,FALSE,TRUE,FALSE,TRUE,FALSE,FALSE,;ATM;;,,PA,http://www.americanpridecu.org,16602-1918,3001 6th Ave
40.49891,-78.416338,A.B.,Altoona Office,Altoona,,United States,FALSE,FALSE,FALSE,TRUE,TRUE,FALSE,FALSE,FALSE,FALSE,TRUE,TRUE,FALSE,Member Services;;;,,PA,http://www.abfederalcu.com,16601,871 30th St
40.506883,-78.402178,ARC,ARC Main Office,Altoona,,United States,TRUE,FALSE,FALSE,TRUE,TRUE,TRUE,FALSE,TRUE,FALSE,TRUE,TRUE,FALSE,Member Services;ATM;Drive Thru;,,PA,http://www.arcfcu.org,16602-2237,1919 7th Ave
40.506883,-78.402178,ARC,ATM,Altoona,,United States,FALSE,FALSE,FALSE,TRUE,TRUE,TRUE,FALSE,TRUE,FALSE,TRUE,TRUE,FALSE,;ATM;;,,PA,http://www.arcfcu.org,16602,1919 7th Ave
40.503254,-78.385262,AMERICAN PRIDE,American Pride CU,Altoona,,United States,TRUE,FALSE,FALSE,FALSE,TRUE,TRUE,FALSE,TRUE,FALSE,TRUE,FALSE,FALSE,Member Services;ATM;Drive Thru;,,PA,http://www.americanpridecu.org,16602,1431 Valley View Blvd
40.511874,-78.400859,HEALTHCARE FIRST CREDIT UNION,Station Medical Center,Altoona,,United States,FALSE,FALSE,FALSE,FALSE,FALSE,FALSE,FALSE,TRUE,FALSE,TRUE,FALSE,FALSE,Member Services;;;,,PA,http://www.healthcarefirstcu.com,16602,1414 9th Ave
40.508562,-78.38424,ALTOONA AREA EMPLOYEES,CREDIT UNION,ALTOONA,,United States,TRUE,FALSE,FALSE,FALSE,FALSE,FALSE,FALSE,TRUE,FALSE,TRUE,FALSE,FALSE,Member Services;;;,,PA,http://WWW.ALTOONAFCU.COM,16602,908 PLEASANT VALLEY BLVD
40.522046,-78.398611,HEALTHCARE FIRST CREDIT UNION,UPMC Altoona Hospital,Altoona,,United States,FALSE,FALSE,FALSE,FALSE,FALSE,FALSE,FALSE,TRUE,FALSE,TRUE,FALSE,FALSE,Member Services;ATM;;,,PA,http://www.healthcarefirstcu.com,16601,620 Howard Ave
40.538391,-78.381647,ARC,ARC Branch,Altoona,,United States,FALSE,FALSE,FALSE,TRUE,TRUE,TRUE,FALSE,TRUE,FALSE,TRUE,TRUE,FALSE,Member Services;ATM;Drive Thru;,,PA,http://www.arcfcu.org,16601-6119,419 N 7th St
40.538391,-78.381647,ARC,ATM - Juniata,Altoona,,United States,FALSE,FALSE,FALSE,TRUE,TRUE,TRUE,FALSE,TRUE,FALSE,TRUE,TRUE,FALSE,;ATM;;,,PA,http://www.arcfcu.org,16601,419 N 7th St
40.487799,-78.0433,ARIZE,Huntingdon - New,Huntingdon,,United States,FALSE,FALSE,FALSE,TRUE,TRUE,TRUE,FALSE,TRUE,FALSE,TRUE,FALSE,FALSE,Member Services;ATM;Drive Thru;,,PA,http://www.arizefcu.org,16652-6955,9902 Shaner Blvd
39.9398,-78.0022,PATRIOT,McConnellsburg/Drive Up ATM,Mc Connellsburg,,United States,FALSE,FALSE,TRUE,FALSE,TRUE,TRUE,TRUE,TRUE,FALSE,TRUE,FALSE,FALSE,;ATM;;,,PA,http://www.patriotfcu.org,17233,274 Lincoln Way W
39.761674,-78.18857,FIRST PEOPLES COMMUNITY,Warfordsburg,Warfordsburg,,United States,FALSE,FALSE,FALSE,FALSE,TRUE,TRUE,FALSE,TRUE,FALSE,TRUE,FALSE,FALSE,Member Services;ATM;Drive Thru;,,PA,http://www.firstpeoples.com,17267,560 Great Cove RD
40.622864,-79.158991,PRIORITY FIRST,Indiana Office,Indiana,,United States,FALSE,FALSE,FALSE,FALSE,TRUE,TRUE,FALSE,TRUE,FALSE,TRUE,FALSE,FALSE,Member Services;;;,,PA,http://www.priorityfirstfcu.org,15701,1002 Philadelphia St
39.504647,-77.966891,EASTERN PANHANDLE,Main Office,Martinsburg,,United States,TRUE,FALSE,FALSE,FALSE,FALSE,FALSE,FALSE,TRUE,FALSE,TRUE,FALSE,FALSE,Member Services;ATM;Drive Thru;,,WV,https://www.easternpanhandlefcu.com,25403,36 GM Access Rd
39.926437,-77.745692,PATRIOT,St. Thomas/Drive Up ATM,Saint Thomas,,United States,FALSE,FALSE,TRUE,FALSE,TRUE,TRUE,TRUE,TRUE,FALSE,TRUE,FALSE,FALSE,;ATM;;,,PA,http://www.patriotfcu.org,17252,4495 Lincoln Way W
39.488861,-77.957304,167TH TFR,North Berkeley Main Office,Martinsburg,,United States,TRUE,FALSE,FALSE,FALSE,TRUE,FALSE,FALSE,TRUE,FALSE,TRUE,FALSE,FALSE,Member Services;ATM;Drive Thru;,,WV,http://www.167tfrfcu.com,25404-6387,1945 Edwin Miller Blvd
39.790655,-77.731367,PATRIOT,Greencastle Drive Up ATM,Greencastle,,United States,FALSE,FALSE,TRUE,FALSE,TRUE,TRUE,TRUE,TRUE,FALSE,TRUE,FALSE,FALSE,;ATM;;,,PA,http://www.patriotfcu.org,17225,41 S Antrim Way
39.780443,-77.733365,CORNING,Greencastle Branch,Greencastle,,United States,FALSE,FALSE,TRUE,FALSE,TRUE,TRUE,TRUE,FALSE,FALSE,TRUE,FALSE,FALSE,Member Services;ATM;Drive Thru;,,PA,http://www.corningcu.org,17225-9042,11677 Molly Pitcher Hwy
39.796962,-77.726914,1ST ED CREDIT UNION,Greencastle,Greencastle,,United States,FALSE,FALSE,FALSE,FALSE,FALSE,FALSE,TRUE,TRUE,FALSE,TRUE,FALSE,FALSE,Member Services;;;Shared Service Center,,PA,http://www.1edcu.org,17225,526 N Antrim Way
39.453178,-77.965554,BERKELEY COUNTY PUBLIC SCHOOLS,Main Office,Martinsburg,,United States,TRUE,FALSE,FALSE,FALSE,FALSE,FALSE,FALSE,FALSE,FALSE,TRUE,FALSE,FALSE,Member Services;;;,,WV,http://www.bcpsfcu.com,25401-3233,401 S Queen St Trlr 1A
39.606624,-77.796548,BULL DOG,Homewood,Williamsport,,United States,FALSE,FALSE,FALSE,FALSE,TRUE,FALSE,FALSE,TRUE,FALSE,TRUE,FALSE,FALSE,Member Services;;Drive Thru;,,MD,http://www.bdfcu.com,21795-1321,16505 Virginia Ave
39.611699,-77.786323,WASHINGTON COUNTY TEACHERS,Williamsport,Williamsport,,United States,FALSE,FALSE,FALSE,FALSE,FALSE,FALSE,FALSE,TRUE,FALSE,TRUE,FALSE,FALSE,Member Services;ATM;Drive Thru;,,MD,http://www.wctfcu.net,21795,16802 Virginia Ave
39.659084,-77.747069,BULL DOG,Centre,Hagerstown,,United States,FALSE,FALSE,FALSE,FALSE,TRUE,FALSE,FALSE,TRUE,FALSE,TRUE,FALSE,FALSE,Member Services;ATM;Drive Thru;,,MD,http://www.bdfcu.com,21740,17990 Garland Groh Blvd
39.619989,-77.771149,"STATE EMPLOYEES CU OF MARYLAND, INC",SECU Credit Union - Hagerstown,Hagerstown,,United States,FALSE,FALSE,FALSE,FALSE,TRUE,TRUE,FALSE,FALSE,FALSE,TRUE,FALSE,FALSE,Member Services;;Drive Thru;,,MD,http://WWW.SECUMD.ORG,21740-6981,17239 Cole Rd
39.398496,-78.002616,167TH TFR,South Berkeley Branch,Martinsburg,,United States,FALSE,FALSE,FALSE,FALSE,TRUE,FALSE,FALSE,TRUE,FALSE,TRUE,FALSE,FALSE,Member Services;ATM;Drive Thru;,,WV,http://www.167tfrfcu.com,25405-2602,4400 Winchester Ave
39.936409,-77.667761,PATRIOT,Federal Street,Chambersburg,,United States,FALSE,FALSE,TRUE,FALSE,TRUE,TRUE,TRUE,TRUE,FALSE,TRUE,FALSE,FALSE,Member Services;ATM;Drive Thru;,,PA,http://www.patriotfcu.org,17201,140 S Federal St
39.624332,-77.758958,BULL DOG,York Road,Hagerstown,,United States,FALSE,FALSE,FALSE,FALSE,TRUE,FALSE,FALSE,TRUE,FALSE,TRUE,FALSE,FALSE,Member Services;ATM;Drive Thru;,,MD,http://www.bdfcu.com,21740-7527,17555 York Rd
39.386492,-78.01306,BAYER HERITAGE,Martinsburg,Martinsburg,,United States,FALSE,FALSE,TRUE,FALSE,TRUE,FALSE,FALSE,TRUE,FALSE,TRUE,FALSE,FALSE,Member Services;;;Shared Service Center,,WV,http://bayerhfcu.com,25405,5550 Winchester Ave Suite 9
39.935929,-77.663366,PATRIOT,West Queen St Drive Up ATM,Chambersburg,,United States,FALSE,FALSE,TRUE,FALSE,TRUE,TRUE,TRUE,TRUE,FALSE,TRUE,FALSE,FALSE,;ATM;;,,PA,http://www.patriotfcu.org,17201,90 W Queen St
39.685483,-77.719442,PATRIOT,North Pointe Office,Hagerstown,,United States,FALSE,FALSE,TRUE,FALSE,TRUE,TRUE,TRUE,TRUE,FALSE,TRUE,FALSE,FALSE,Member Services;ATM;Drive Thru;,,MD,http://www.patriotfcu.org,21742,18721 Longmeadow Rd
39.916189,-77.655522,PATRIOT,Corporate Office,Chambersburg,,United States,TRUE,FALSE,TRUE,FALSE,TRUE,TRUE,TRUE,TRUE,FALSE,TRUE,FALSE,FALSE,Member Services;ATM;;,,PA,http://www.patriotfcu.org,17201-3810,800 Wayne Ave
39.916189,-77.655522,PATRIOT,Wayne Ave Drive Up/Lobby/ATMs,Chambersburg,,United States,FALSE,FALSE,TRUE,FALSE,TRUE,TRUE,TRUE,TRUE,FALSE,TRUE,FALSE,FALSE,;ATM;Drive Thru;,,PA,http://www.patriotfcu.org,17201,800 Wayne Ave
39.92848,-77.652725,PATRIOT,CASHS Student Branch,Chambersburg,,United States,FALSE,FALSE,TRUE,FALSE,TRUE,TRUE,TRUE,TRUE,FALSE,TRUE,FALSE,FALSE,Member Services;ATM;;,,PA,http://www.patriotfcu.org,17201,511 S 6th St
39.925,-77.6512,PATRIOT,Greenvillage/Drive Up ATM,Chambersburg,,United States,FALSE,FALSE,TRUE,FALSE,TRUE,TRUE,TRUE,TRUE,FALSE,TRUE,FALSE,FALSE,;ATM;;,,PA,http://www.patriotfcu.org,17202,4306 Philadelphia Ave
39.925,-77.6512,PATRIOT,Lincoln Highway East,Chambersburg,,United States,FALSE,FALSE,TRUE,FALSE,TRUE,TRUE,TRUE,TRUE,FALSE,TRUE,FALSE,FALSE,Member Services;ATM;Drive Thru;,,PA,http://www.patriotfcu.org,17202,1536 Lincoln Way E
39.925281,-77.638885,1ST ED CREDIT UNION,FCTCU,Chambersburg,,United States,TRUE,FALSE,FALSE,FALSE,FALSE,FALSE,TRUE,TRUE,FALSE,TRUE,FALSE,FALSE,Member Services;;Drive Thru;Shared Service Center,,PA,http://www.1edcu.org,17201,1156 Kennebec Dr
39.94204,-77.636971,CORNING,Chambersburg Branch,Chambersburg,,United States,FALSE,FALSE,TRUE,FALSE,TRUE,TRUE,TRUE,FALSE,FALSE,TRUE,FALSE,FALSE,Member Services;ATM;Drive Thru;,,PA,http://www.corningcu.org,17201-4217,800 Norland Ave
39.935981,-77.632841,PATRIOT,Gateway Avenue Office,Chambersburg,,United States,FALSE,FALSE,TRUE,FALSE,TRUE,TRUE,TRUE,TRUE,FALSE,TRUE,FALSE,FALSE,Member Services;ATM;Drive Thru;,,PA,http://www.patriotfcu.org,17201,488 Gateway Ave
39.680501,-77.720911,BULL DOG,MACK Trucks,Hagerstown,,United States,FALSE,FALSE,FALSE,FALSE,TRUE,FALSE,FALSE,TRUE,FALSE,TRUE,FALSE,FALSE,;ATM;;,,MD,http://www.bdfcu.com,21742,13302 Pennsylvania Ave
39.66583,-77.710339,BULL DOG,Main Office,Hagerstown,,United States,TRUE,FALSE,FALSE,FALSE,TRUE,FALSE,FALSE,TRUE,FALSE,TRUE,FALSE,FALSE,Member Services;ATM;Drive Thru;,,MD,http://www.bdfcu.com,21742,580 Northern Ave
39.67471,-77.690948,WASHINGTON COUNTY TEACHERS,Main Office,Hagerstown,,United States,TRUE,FALSE,FALSE,FALSE,FALSE,FALSE,FALSE,TRUE,FALSE,TRUE,FALSE,FALSE,Member Services;ATM;Drive Thru;,,MD,http://www.wctfcu.net,21742,19638 Leitersburg Pike Suite 100
39.59866,-77.763993,WASHINGTON COUNTY TEACHERS,CES,Hagerstown,,United States,FALSE,FALSE,FALSE,FALSE,FALSE,FALSE,FALSE,TRUE,FALSE,TRUE,FALSE,FALSE,Member Services;ATM;;,,MD,http://www.wctfcu.net,21740,10435 Downsville Pike
39.9137666,-77.5696912,PATRIOT,Fayetteville ATM,Chambersburg,,United States,FALSE,FALSE,TRUE,FALSE,TRUE,TRUE,TRUE,TRUE,FALSE,TRUE,FALSE,FALSE,;ATM;;,,PA,http://www.patriotfcu.org,17202,3135 Lincoln Way East
39.629441,-77.699923,BULL DOG,Dual Highway,Hagerstown,,United States,FALSE,FALSE,FALSE,FALSE,TRUE,FALSE,FALSE,TRUE,FALSE,TRUE,FALSE,FALSE,Member Services;ATM;Drive Thru;,,MD,http://www.bdfcu.com,21740-5923,1240 Dual Hwy
39.596874,-77.729839,BULL DOG,Sharpsburg,Hagerstown,,United States,FALSE,FALSE,FALSE,FALSE,TRUE,FALSE,FALSE,TRUE,FALSE,TRUE,FALSE,FALSE,Member Services;ATM;Drive Thru;,,MD,http://www.bdfcu.com,21740-1483,10306 Remington Dr
39.763797,-77.577374,PATRIOT,Waynesboro West,Waynesboro,,United States,FALSE,FALSE,TRUE,FALSE,TRUE,TRUE,TRUE,TRUE,FALSE,TRUE,FALSE,FALSE,;ATM;;,,PA,http://www.patriotfcu.org,17268-1160,405 N Grant St
40.044157,-77.5329,PATRIOT,Shippensburg,Shippensburg,,United States,FALSE,FALSE,TRUE,FALSE,TRUE,TRUE,TRUE,TRUE,FALSE,TRUE,FALSE,FALSE,Member Services;ATM;Drive Thru;,,PA,http://www.patriotfcu.org,17257-7900,1095 W King St
39.619186,-77.678268,PATRIOT,Robinwood,Hagerstown,,United States,FALSE,FALSE,TRUE,FALSE,TRUE,TRUE,TRUE,TRUE,FALSE,TRUE,FALSE,FALSE,Member Services;ATM;Drive Thru;,,MD,http://www.patriotfcu.org,21742-6793,11067 Robinwood Dr
39.759,-77.5709,PATRIOT,Waynesboro Financial Services Center,Waynesboro,,United States,FALSE,FALSE,TRUE,FALSE,TRUE,TRUE,TRUE,TRUE,FALSE,TRUE,FALSE,FALSE,Member Services;ATM;Drive Thru;,,PA,http://www.patriotfcu.org,17268,10933 Buchanan Trl E
40.056117,-77.511682,MEMBERS 1ST,Shippensburg Branch,Shippensburg,,United States,FALSE,FALSE,TRUE,FALSE,TRUE,TRUE,TRUE,TRUE,FALSE,TRUE,FALSE,FALSE,Member Services;ATM;Drive Thru;,,PA,http://www.members1st.org,17257,401 E King St
39.642423,-77.591543,BULL DOG,Smithsburg,Smithsburg,,United States,FALSE,FALSE,FALSE,FALSE,TRUE,FALSE,FALSE,TRUE,FALSE,TRUE,FALSE,FALSE,Member Services;ATM;Drive Thru;,,MD,http://www.bdfcu.com,21783,22317 Jefferson Blvd
39.417627,-77.916286,MOUNTAIN HERITAGE,ATF ATM,Martinsburg,,United States,FALSE,FALSE,FALSE,FALSE,TRUE,FALSE,FALSE,TRUE,FALSE,TRUE,FALSE,FALSE,;ATM;;,,WV,http://www.mhfcu.net,25405,244 Needy Rd
39.412633,-77.915534,MARTINSBURG V.A. CENTER,Martinsburg VA Center FCU,Kearneysville,,United States,TRUE,FALSE,FALSE,FALSE,TRUE,FALSE,FALSE,TRUE,FALSE,TRUE,FALSE,FALSE,Member Services;ATM;Drive Thru;,,WV,http://martinsburgfcu.com,25430,2971 Charles Town Rd
39.398872,-77.915532,MOUNTAIN HERITAGE,MHFCU Kearneysville,Kearneysville,,United States,FALSE,FALSE,FALSE,FALSE,TRUE,FALSE,FALSE,TRUE,FALSE,TRUE,FALSE,FALSE,Member Services;ATM;;,,WV,http://www.mhfcu.net,25430,250 Murall Dr
39.395996,-77.913786,MOUNTAIN HERITAGE,Coast Guard ATM,Kearneysville,,United States,FALSE,FALSE,FALSE,FALSE,TRUE,FALSE,FALSE,TRUE,FALSE,TRUE,FALSE,FALSE,;ATM;;,,WV,http://www.mhfcu.net,25430,408 Coast Guard Dr
39.078228,-78.964218,PARTNERS 1ST,"Partners 1st FCU, Br. 76",Moorefield,,United States,FALSE,FALSE,TRUE,FALSE,TRUE,FALSE,FALSE,TRUE,FALSE,TRUE,FALSE,FALSE,Member Services;ATM;;Shared Service Center,,WV,http://www.partners1stcu.org,26836,1122 US Highway 220 N
41.0011,-79.7124,ARMCO,Armco Credit Union Karns City Branch,Karns City,,United States,FALSE,FALSE,FALSE,FALSE,FALSE,FALSE,FALSE,TRUE,FALSE,FALSE,FALSE,FALSE,Member Services;ATM;Drive Thru;,,PA,http://www.armcocu.com,16041-9218,106 Petrolia Street
40.944538,-78.965275,PRIORITY FIRST,Punxsutawney Office,Punxsutawney,,United States,FALSE,FALSE,FALSE,FALSE,TRUE,TRUE,FALSE,TRUE,FALSE,TRUE,FALSE,FALSE,Member Services;ATM;Drive Thru;,,PA,http://www.priorityfirstfcu.org,15767,422 E Mahoning St
41.163764,-79.097334,TOP TIER,Top Tier Federal Credit Union Brookville Branch,Brookville,,United States,FALSE,FALSE,FALSE,TRUE,TRUE,TRUE,FALSE,TRUE,FALSE,TRUE,FALSE,FALSE,Member Services;ATM;Drive Thru;,,PA,http://www.toptierfcu.org,15825,204 Allegheny Blvd
41.16457,-79.04878,PRIORITY FIRST,Brookville Office,Brookville,,United States,FALSE,FALSE,FALSE,FALSE,TRUE,TRUE,FALSE,TRUE,FALSE,TRUE,FALSE,FALSE,Member Services;ATM;Drive Thru;,,PA,http://www.priorityfirstfcu.org,15825,909 Route 28
41.121494,-78.738845,TIMBERLAND,DuBois Office,DuBois,,United States,TRUE,FALSE,FALSE,FALSE,TRUE,TRUE,FALSE,TRUE,FALSE,FALSE,FALSE,FALSE,Member Services;ATM;Drive Thru;,,PA,https://www.timberlandfcu.org,15801,821 Beaver Dr
41.123836,-78.730725,PRIORITY FIRST,DuBois,Du Bois,,United States,TRUE,FALSE,FALSE,FALSE,TRUE,TRUE,FALSE,TRUE,FALSE,TRUE,FALSE,FALSE,Member Services;ATM;Drive Thru;,,PA,http://www.priorityfirstfcu.org,15801,364 Midway Dr
41.192154,-79.390318,TOP TIER,Top Tier Federal Credit Union,Clarion,,United States,TRUE,FALSE,FALSE,TRUE,TRUE,TRUE,FALSE,TRUE,FALSE,TRUE,FALSE,FALSE,Member Services;ATM;Drive Thru;,,PA,http://www.toptierfcu.org,16214,144 Holiday Inn Rd
41.248657,-78.797371,PRIORITY FIRST,Brockway Office,Brockway,,United States,FALSE,FALSE,FALSE,FALSE,TRUE,TRUE,FALSE,TRUE,FALSE,TRUE,FALSE,FALSE,Member Services;ATM;Drive Thru;,,PA,http://www.priorityfirstfcu.org,15824,550 Main St
40.988099,-78.477346,TIMBERLAND,Clearfield Office,Clearfield,,United States,FALSE,FALSE,FALSE,FALSE,TRUE,TRUE,FALSE,TRUE,FALSE,FALSE,FALSE,FALSE,Member Services;ATM;Drive Thru;,,PA,https://www.timberlandfcu.org,16830,8764 Clearfield Curwensville Hwy
41.020709,-78.41306,PRIORITY FIRST,Clearfield Office,Clearfield,,United States,FALSE,FALSE,FALSE,FALSE,TRUE,TRUE,FALSE,TRUE,FALSE,TRUE,FALSE,FALSE,Member Services;ATM;Drive Thru;,,PA,http://www.priorityfirstfcu.org,16830,1935 Daisy Street Ext
41.231411,-79.529043,PRIORITY FIRST,Knox Office,Knox,,United States,FALSE,FALSE,FALSE,FALSE,TRUE,TRUE,FALSE,TRUE,FALSE,TRUE,FALSE,FALSE,Member Services;;;,,PA,http://www.priorityfirstfcu.org,16232,778 Beatty Ave
41.425674,-78.55542,MOUNTAIN LAUREL,Mountain Laurel FCU Main Office,Saint Marys,,United States,TRUE,FALSE,FALSE,FALSE,FALSE,FALSE,FALSE,TRUE,FALSE,TRUE,FALSE,FALSE,Member Services;;Drive Thru;,,PA,http://www.mlfcu.net,15857,413 S Michael St
41.490368,-78.675903,PENNTECH EMPLOYEES,Main Office,Johnsonburg,,United States,TRUE,FALSE,FALSE,FALSE,FALSE,FALSE,FALSE,FALSE,FALSE,TRUE,FALSE,FALSE,Member Services;;;,,PA,http://penntechfcu.com,15845-1307,409 Center St Ste C
40.89716,-78.223938,TIMBERLAND,Philipsburg Office,Philipsburg,,United States,FALSE,FALSE,FALSE,FALSE,TRUE,TRUE,FALSE,TRUE,FALSE,FALSE,FALSE,FALSE,Member Services;ATM;;,,PA,https://www.timberlandfcu.org,16866,201 N Front St
41.655583,-78.811401,MOUNTAIN LAUREL,Mountain Laurel FCU Kane Branch,Kane,,United States,FALSE,FALSE,FALSE,FALSE,FALSE,FALSE,FALSE,TRUE,FALSE,TRUE,FALSE,FALSE,Member Services;;;,,PA,http://www.mlfcu.net,16735,211 S Fraley St
41.351735,-79.717662,TOP TIER,Top Tier Federal Credit Union Cranberry Branch,Cranberry,,United States,FALSE,FALSE,FALSE,TRUE,TRUE,TRUE,FALSE,TRUE,FALSE,TRUE,FALSE,FALSE,Member Services;ATM;Drive Thru;,,PA,http://www.toptierfcu.org,16319,6935 US 322
41.428217,-79.709713,NEW DIRECTIONS COMMUNITY,New Directions Community Credit Union,Oil City,,United States,FALSE,FALSE,FALSE,TRUE,TRUE,FALSE,FALSE,TRUE,FALSE,TRUE,FALSE,FALSE,Member Services;ATM;Drive Thru;,,PA,https://www.newdirectionsccu.com,16301,25 E 1st St
41.406182,-79.800789,NEW DIRECTIONS COMMUNITY,New Directions Community Credit Union,Franklin,,United States,TRUE,FALSE,FALSE,TRUE,TRUE,FALSE,FALSE,TRUE,FALSE,TRUE,FALSE,FALSE,Member Services;ATM;Drive Thru;,,PA,https://www.newdirectionsccu.com,16323,777 Allegheny Blvd
41.511631,-78.239506,MOUNTAIN LAUREL,Mountain Laurel FCU Emporium Branch,Emporium,,United States,FALSE,FALSE,FALSE,FALSE,FALSE,FALSE,FALSE,TRUE,FALSE,TRUE,FALSE,FALSE,Member Services;;;,,PA,http://www.mlfcu.net,15834,22 W 4th St
41.683313,-79.412958,KINZUA,Kinzua Federal Credit Union,Tidioute,,United States,FALSE,FALSE,FALSE,FALSE,TRUE,FALSE,FALSE,TRUE,FALSE,TRUE,FALSE,FALSE,Member Services;;;,,PA,http://www.kinzuafcu.com,16351,115 Main St Suite B
41.397829,-79.833175,GALAXY,Main office,Franklin,,United States,TRUE,FALSE,FALSE,FALSE,TRUE,FALSE,FALSE,TRUE,FALSE,TRUE,TRUE,FALSE,Member Services;ATM;Drive Thru;,,PA,http://www.galaxyfcu.com,16323,1313 Liberty St
40.809366,-77.905883,PENN STATE,Penn State Federal Credit Union - North Atherton Office,State College,,United States,FALSE,FALSE,FALSE,FALSE,FALSE,FALSE,FALSE,TRUE,FALSE,TRUE,FALSE,FALSE,Member Services;ATM;;,,PA,https://www.pennstatefederal.com,16803-1523,1937 N Atherton St
40.782487,-77.900391,ARIZE,Science Park Office,State College,,United States,FALSE,FALSE,FALSE,TRUE,TRUE,TRUE,FALSE,TRUE,FALSE,TRUE,FALSE,FALSE,Member Services;ATM;Drive Thru;,,PA,http://www.arizefcu.org,16803,650 Science Park Rd
